Watershed_ID;Source;Name;Official_ID;Centroid_Lat_deg_N;Centroid_Lon_deg_E;Drainage_Area_km2;Drainage_Area_GSIM_km2;Flag_GSIM_boundaries;Flag_Artificial_Boundaries;Elevation_m;Slope_deg;Gravelius;Perimeter;Flag_Shape_Extraction;Aspect_deg;Flag_Terrain_Extraction;Land_Use_Forest_frac;Land_Use_Grass_frac;Land_Use_Wetland_frac;Land_Use_Water_frac;Land_Use_Urban_frac;Land_Use_Shrubs_frac;Land_Use_Crops_frac;Land_Use_Snow_Ice_frac;Flag_Land_Use_Extraction;Permeability_logk_m2;Porosity_frac;Flag_Subsoil_Extraction
1;HYDAT;SAINT JOHN RIVER AT FORT KENT;01AD002;47.25806;-68.59583;14703.9211;NaN;0;0;362.3;3.5329;2.7834;1194.505;1;130.4023;1;0.7869;0.0147;0.0645;0.0258;0.0089;0.0749;0.0242;0;1;-14.7193269260765;0.180905196519915;1
2;HYDAT;ST. FRANCIS RIVER AT OUTLET OF GLASIER LAKE;01AD003;47.20661;-68.95694;1358.6435;NaN;0;0;353.4;4.6633;2.0656;269.164;1;91.7329;1;0.8452;0.0102;0.0228;0.0219;0.0174;0.041;0.0414;0;1;-14.056490802378;0.206450307163699;1
3;HYDAT;MADAWASKA (RIVIERE) A 6 KM EN AVAL DU BARRAGE TEMISCOUATA;01AD015;47.5385;-68.5918;2712;2693.814;1;0;293.3;4.469;2.062;381.994;1;223.951;1;0.8207;0.0093;0.0032;0.0487;0.023;0.0351;0.06;0;1;-14.5373903707308;0.165356874045646;1
4;HYDAT;FISH RIVER NEAR FORT KENT;01AE001;47.2375;-68.58278;2245.7638;NaN;0;0;276.5;4.1819;2.4682;413.839;1;120.74;1;0.6837;0.0226;0.1024;0.063;0.0115;0.0641;0.0528;0;1;-14.6878692104879;0.170597199387675;1
5;HYDAT;BLACK BROOK NEAR ST-ANDRE-DE-MADAWASKA;01AF006;47.09139;-67.73139;14.2;NaN;0;1;201.8;2.8061;NaN;NaN;0;56.8902;1;0;0;0;0;0;0;1;0;1;NaN;NaN;0
6;HYDAT;GRANDE RIVIERE AT VIOLETTE BRIDGE;01AF007;47.24697;-67.92128;328.4387;NaN;0;0;266.7;3.1618;2.4173;154.916;1;208.9651;1;0.7936;0.0694;0.0737;0.002;0.0122;0.0353;0.0138;0;1;-13.5251585595452;0.125961943161349;1
7;HYDAT;IROQUOIS RIVER AT MOULIN MORNEAULT;01AF009;47.45783;-68.35683;184.1086;NaN;0;0;336.5;5.9008;1.6503;79.153;1;184.6077;1;0.9107;0.0118;0.0013;0.0021;0.0179;0.0448;0.0116;0;1;-15.1999998092651;0.189999997615814;1
8;HYDAT;MAMOZEKEL RIVER NEAR CAMPBELL RIVER;01AH005;47.25083;-67.14222;230;223.604;1;0;339.3;5.9632;1.6687;88.559;1;224.0896;1;0.822;0.1152;0.0023;0.0001;0.0079;0.0526;0;0;1;-12.2858044747675;0.080820191346038;1
9;HYDAT;MEDUXNEKEAG RIVER NEAR BELLEVILLE;01AJ003;46.21622;-67.72794;1206.8273;NaN;0;0;182.5;2.1286;2.0087;247.274;1;99.779;1;0.5851;0.0119;0.157;0.0087;0.0382;0.0496;0.1495;0;1;-14.2634548250012;0.103642771625727;1
10;HYDAT;BIG PRESQUE ISLE STREAM AT TRACEY MILLS;01AJ004;46.43836;-67.73844;487.5935;NaN;0;0;185.3;2.4437;2.0068;156.926;1;113.3444;1;0.4145;0.0089;0.1656;0.0039;0.0493;0.0217;0.3362;0;1;-12.4044477744629;0.082424676326375;1
11;HYDAT;HOLMES BROOK AT MOOSE MOUNTAIN;01AJ006;46.61278;-67.61056;7.77;NaN;0;1;223.8;4.4019;NaN;NaN;0;163.8485;1;0;0;0;0;0;0;1;0;1;NaN;NaN;0
12;HYDAT;HOLMES BROOK NEAR HOLMESVILLE;01AJ007;46.57611;-67.59528;31.3;NaN;0;1;168.6;2.848;NaN;NaN;0;203.8809;1;0.25;0.75;0;0;0;0;0;0;1;NaN;NaN;0
13;HYDAT;BECAGUIMEC STREAM AT COLDSTREAM;01AJ010;46.34089;-67.46511;343.5156;NaN;0;0;231.7;4.2668;1.6341;107.298;1;198.6796;1;0.8255;0.0616;0.0151;0.004;0.0152;0.031;0.0476;0;1;-14.2367347639434;0.101061223945295;1
14;HYDAT;COLD STREAM AT COLDSTREAM;01AJ011;46.34222;-67.46917;156;155.5894;1;0;228.1;4.118;1.4156;62.719;1;185.0623;1;0.5973;0.0844;0.0052;0.0003;0.0297;0.0297;0.2534;0;1;-11.8126698705406;0.060542985173237;1
15;HYDAT;SHOGOMOC STREAM NEAR TRANS CANADA HIGHWAY;01AK001;45.94353;-67.32036;233.9935;NaN;0;0;169.2;3.0621;1.992;108.052;1;86.6559;1;0.8081;0.0588;0.0318;0.0466;0.0071;0.0362;0.0114;0;1;-14.0303034059929;0.011515151257768;1
16;HYDAT;MIDDLE BRANCH NASHWAAKSIS STREAM NEAR ROYAL ROAD;01AK005;46.035;-66.70139;26.9;NaN;0;1;102.6;3.3251;NaN;NaN;0;111.8135;1;1;0;0;0;0;0;0;0;1;NaN;NaN;0
17;HYDAT;MIDDLE BRANCH NASHWAAKSIS STREAM AT SANDWITH'S FARM;01AK006;46.08281;-66.73303;5.1103;NaN;0;0;209.3;1.6163;1.6523;13.244;1;146.281;1;0.7083;0.0085;0.0168;0.0096;0.0585;0.068;0.1304;0;1;-15.1999998092651;0.189999997615814;1
18;HYDAT;NACKAWIC STREAM NEAR TEMPERANCE VALE;01AK007;46.04878;-67.23961;246.3081;NaN;0;0;176.1;2.398;1.5364;85.451;1;112.1874;1;0.853;0.0295;0.0197;0.0042;0.0147;0.0308;0.0481;0;1;-12.6968300541815;0.080806917583393;1
19;HYDAT;NASHWAAK RIVER AT DURHAM BRIDGE;01AL002;46.12592;-66.61131;1455.5495;NaN;0;0;228.5;2.9697;1.8775;253.774;1;119.5764;1;0.8529;0.0359;0.0154;0.0048;0.0137;0.0422;0.0352;0;1;-15.0071079612591;0.166923074934091;1
20;HYDAT;HAYDEN BROOK NEAR NARROWS MOUNTAIN;01AL003;46.29889;-67.03694;6.48;NaN;0;1;257.2;5.7899;NaN;NaN;0;92.3612;1;1;0;0;0;0;0;0;0;1;NaN;NaN;0
21;HYDAT;NARROWS MOUNTAIN BROOK NEAR NARROWS MOUNTAIN;01AL004;46.27717;-67.02139;3.9908;NaN;0;0;286.7;3.9572;1.362;9.646;1;96.7267;1;0.9375;0.0427;0.0054;0.0004;0;0.014;0;0;1;-14.5714287076678;0.087142855993339;1
22;HYDAT;NASHWAAK RIVER AT STANLEY;01AL008;46.28306;-66.7375;641;640.737;1;0;286.4;3.8236;1.8027;167.048;1;113.1216;1;0.8553;0.0486;0.0138;0.0078;0.0112;0.0421;0.0211;0;1;-14.8116735160843;0.140227271132325;1
23;HYDAT;NORTH BRANCH OROMOCTO RIVER AT TRACY;01AM001;45.67378;-66.68289;564.8203;NaN;0;0;119.9;1.1745;1.7984;151.62;1;85.3218;1;0.792;0.0305;0.0247;0.079;0.0134;0.0283;0.032;0;1;-15.1002545933815;0.186305730320086;1
24;HYDAT;CASTAWAY STREAM NEAR CASTAWAY;01AN001;46.29833;-65.71194;34.4;NaN;0;1;46;1.5463;NaN;NaN;0;82.932;1;1;0;0;0;0;0;0;0;1;NaN;NaN;0
25;HYDAT;SALMON RIVER AT CASTAWAY;01AN002;46.29072;-65.72275;1053.8309;NaN;0;0;78.3;0.8975;1.6143;185.627;1;51.5759;1;0.8957;0.0327;0.0384;0.004;0.0057;0.0173;0.0061;0;1;-15.1999998092651;0.189999997615814;1
26;HYDAT;BURPEE MILLSTREAM NEAR FERNMOUNT;01AO009;45.95667;-66.31139;93.2;109.5995;1;0;91.7;1.2917;1.8263;43.236;1;67.8626;1;0.9068;0.0227;0.033;0.0005;0.0251;0.0119;0;0;1;-15.1999998092651;0.189999997615814;1
27;HYDAT;CANAAN RIVER AT EAST CANAAN;01AP002;46.07236;-65.36639;669.1959;NaN;0;0;85.5;0.9995;1.6545;151.672;1;345.0301;1;0.8435;0.0285;0.0426;0.0027;0.0156;0.0327;0.0345;0;1;-15.1999998092651;0.189999997615814;1
28;HYDAT;KENNEBECASIS RIVER AT APOHAQUI;01AP004;45.70139;-65.60169;1103.4376;NaN;0;0;143.8;4.8412;1.7657;208.023;1;265.5507;1;0.7175;0.0533;0.0032;0.0024;0.0435;0.031;0.149;0;1;-15.0117797623174;0.181766988320162;1
29;HYDAT;NEREPIS RIVER NEAR FOWLERS CORNER;01AP006;45.50344;-66.31897;290.8257;NaN;0;0;120.2;2.6753;1.4702;88.954;1;121.9021;1;0.7974;0.1092;0.0078;0.0023;0.0332;0.0333;0.0168;0;1;-13.9121587128556;0.141265509141697;1
30;HYDAT;PARLEE BROOK BELOW ARNOLDS BRIDGE;01AP009;45.6725;-65.41833;35.4;NaN;0;1;171.1;8.3089;NaN;NaN;0;310.7533;1;1;0;0;0;0;0;0;0;1;NaN;NaN;0
31;HYDAT;LEPREAU RIVER AT LEPREAU;01AQ001;45.16978;-66.46828;230.5653;NaN;0;0;156.9;2.7939;2.1823;117.643;1;125.6082;1;0.8528;0.0257;0.0151;0.0721;0.0094;0.0249;0;0;1;-14.1000003814697;0.009999999776483;1
32;HYDAT;PISKAHEGAN STREAM NEAR PLEASANT MOUNTAIN;01AQ008;45.41806;-66.88694;197;217.5833;1;0;143.4;1.9215;1.6166;87.612;1;207.7239;1;0.8872;0.0459;0.0195;0.0129;0.0107;0.0236;0.0002;0;1;-13.568730605276;0.120959753522378;1
33;HYDAT;BOCABEC RIVER AT OUTLET OF KERR LAKE;01AR007;45.2075;-67.01944;12.4;NaN;0;1;70.8;3.2864;NaN;NaN;0;131.2669;1;1;0;0;0;0;0;0;0;1;NaN;NaN;0
34;HYDAT;BOCABEC RIVER ABOVE TIDE;01AR008;45.19306;-66.99889;43;NaN;0;1;55.4;4.6902;NaN;NaN;0;122.4421;1;0.7857;0;0;0;0;0.2143;0;0;1;NaN;NaN;0
35;HYDAT;RESTIGOUCHE RIVER ABOVE KEDGWICK RIVER;01BA001;47.65639;-67.49417;1570;1575.855;1;0;310.6;4.9362;1.9093;269.271;1;161.704;1;0.8028;0.072;0.0392;0.0024;0.0121;0.0354;0.0361;0;1;-13.9311004301007;0.141483251593615;1
36;HYDAT;RESTIGOUCHE RIVER BELOW KEDGWICK RIVER;01BC001;47.66708;-67.48308;3167.7028;NaN;0;0;346.4;5.877;2.3824;473.861;1;140.442;1;0.8464;0.0651;0.0289;0.0053;0.0096;0.0266;0.0181;0;1;-14.4249890313776;0.160367229491997;1
37;HYDAT;MATAPEDIA (RIVIERE) EN AMONT DE LA RIVIERE ASSEMETQUAGAN;01BD002;48.08667;-67.10056;2760;2754.345;1;0;324.2;4.6857;1.7914;332.184;1;339.2973;1;0.8037;0.0293;0.0125;0.026;0.025;0.0115;0.0919;0;1;-13.6294262216057;0.152102929895674;1
38;HYDAT;MATAPEDIA (LAC) A VAL-BRILLANT;01BD004;48.53389;-67.54556;558;419.7473;1;0;262.4;3.5301;2.3046;157.956;1;347.3496;1;0.7512;0.0125;0.0027;0.0977;0.0314;0.0065;0.098;0;1;-13.4552157611298;0.239622308108822;1
39;HYDAT;MATAPEDIA (RIVIERE) PRES DE AMQUI;01BD008;48.49167;-67.45;558;549.88;1;0;268.4;3.8184;1.9676;150.991;1;351.1838;1;0.7093;0.0146;0.0043;0.0809;0.0342;0.0067;0.15;0;1;-13.5395682808307;0.224589932758173;1
40;HYDAT;MATAPEDIA (RIVIERE) A 4 KM EN AMONT DE L'ASSEMETQUAGAN;01BD009;48.1079;-67.1302;2756;2746.302;1;0;324.2;4.6857;1.7914;332.184;1;339.2973;1;0.8037;0.0293;0.0125;0.026;0.025;0.0115;0.0919;0;1;-13.6294262216057;0.152102929895674;1
41;HYDAT;UPSALQUITCH RIVER AT UPSALQUITCH;01BE001;47.83247;-66.88708;2270.3229;NaN;0;0;307.6;5.6115;2.0185;339.909;1;50.3697;1;0.8948;0.0681;0.002;0.0033;0.0049;0.0268;0.0002;0;1;-13.7234507429788;0.134170715952856;1
42;HYDAT;NOUVELLE (RIVIERE) AU PONT;01BF001;48.15722;-66.34944;1140;1147.057;1;0;397.6;9.1453;1.5195;183.929;1;146.003;1;0.9588;0.0136;0.0018;0.0026;0.0085;0.0051;0.0093;0;1;-14.641724401602;0.168865738863436;1
43;HYDAT;NOUVELLE (RIVIERE) A 0,2 KM EN AMONT DU PONT-ROUTE 132 A NOUVELLE;01BF004;48.1588;-66.3488;1139;1147.057;1;0;397.6;9.1453;1.5195;183.929;1;146.003;1;0.9588;0.0136;0.0018;0.0026;0.0085;0.0051;0.0093;0;1;-14.641724401602;0.168865738863436;1
44;HYDAT;CASCAPEDIA (PETITE RIVIERE) EN AMONT DU PONT;01BG001;48.18917;-65.81194;1390;1423.801;1;0;412;10.0618;1.8162;245.601;1;150.1158;1;0.9374;0.0231;0.0081;0.0056;0.0086;0.0058;0.0113;0;1;-14.257400466379;0.154065677999527;1
45;HYDAT;BONAVENTURE (RIVIERE) EN AMONT DU PONT;01BG002;48.1;-65.46167;2150;2151.577;1;0;406.8;8.3003;1.7819;291.975;1;163.0493;1;0.8907;0.0807;0.0057;0.0043;0.0045;0.0113;0.0028;0;1;-14.6821899240012;0.170201382293238;1
46;HYDAT;CASCAPEDIA (RIVIERE) EN AVAL DU LAC CASCAPEDIA;01BG003;48.66639;-66.18944;1480;1445.712;1;0;482.8;7.9592;1.5469;208.962;1;135.8312;1;0.9474;0.0298;0.0025;0.0065;0.0058;0.0081;0;0;1;-13.5641143876248;0.122080258046521;1
47;HYDAT;CASCAPEDIA (RIVIERE) EN AMONT DE LA RIVIERE ANGERS;01BG004;48.31778;-65.9725;2400;2370.759;1;0;464.3;9.3323;1.6774;288.402;1;148.0851;1;0.9531;0.0231;0.0022;0.006;0.0068;0.0088;0;0;1;-13.9855839878745;0.140407406651757;1
48;HYDAT;CASCAPEDIA (RIVIERE) EN AVAL DU RUISSEAU BERRY;01BG005;48.62833;-66.16806;1680;1652.355;1;0;479.2;8.2563;1.6707;243.468;1;154.8645;1;0.95;0.0277;0.0026;0.0062;0.0061;0.0075;0;0;1;-13.591719479644;0.124068937978003;1
49;HYDAT;BASTIEN (RUISSEAU) EN AMONT DU PONT;01BG006;48.10972;-66.12694;12.4;NaN;0;1;27.2;2.8718;NaN;NaN;0;165.7946;1;0;0;0;0;0;0;1;0;1;NaN;NaN;0
50;HYDAT;CASCAPEDIA (PETITE RIVIERE) A SAINT-EDGAR;01BG008;48.23083;-65.735;1340;1349.926;1;0;412;10.0618;1.8162;245.601;1;150.1158;1;0.9374;0.0231;0.0081;0.0056;0.0086;0.0058;0.0113;0;1;-14.257400466379;0.154065677999527;1
51;HYDAT;BONAVENTURE (RIVIERE) EN AMONT DU RUISSEAU CREUX;01BG009;48.18611;-65.55861;1910;1919.59;1;0;420.7;8.5875;1.7919;282.493;1;163.7346;1;0.8878;0.0864;0.0061;0.004;0.0035;0.0121;0.0001;0;1;-14.641411956119;0.168642224535316;1
52;HYDAT;DARTMOUTH (RIVIERE) PRES DE CORTEREAL;01BH001;48.93306;-64.63556;748;729.3987;1;0;358.7;7.9426;1.6076;153.818;1;49.8127;1;0.9605;0.0201;0;0.0056;0.0057;0.008;0;0;1;-13.9073635543476;0.21340000314638;1
53;HYDAT;YORK (RIVIERE) A SUNNY BANK;01BH002;48.83417;-64.625;1010;1012.091;1;0;417;8.0563;2.383;270.765;1;95.1964;1;0.9497;0.0236;0.0005;0.0088;0.0121;0.0054;0;0;1;-13.9813756763278;0.143316026543745;1
54;HYDAT;PORPHYRE (RUISSEAU);01BH003;48.94583;-65.48944;30.2;NaN;0;1;627.3;11.2849;NaN;NaN;0;107.6611;1;1;0;0;0;0;0;0;0;1;NaN;NaN;0
55;HYDAT;GRANDE-RIVIERE OUEST (LA);01BH007;48.47778;-64.52861;534;536.8892;1;0;325.7;9.5206;1.8992;159.584;1;133.0092;1;0.9791;0.0083;0;0.0035;0.0045;0.0044;0.0002;0;1;-15.130695260686;0.187350117541153;1
56;HYDAT;SAINT-JEAN (RIVIERE);01BH008;48.77167;-64.52139;1090;1085.384;1;0;406.6;8.8596;2.4852;298.213;1;82.6085;1;0.9581;0.0219;0.0004;0.0057;0.0064;0.0065;0.0007;0;1;-13.8165790654732;0.137104493078177;1
57;HYDAT;YORK RIVIERE) EN AMONT DU RUISSEAU D'ARGENT;01BH009;48.83167;-64.685;972;966.5558;1;0;417;8.0563;2.383;270.765;1;95.1964;1;0.9497;0.0236;0.0005;0.0088;0.0121;0.0054;0;0;1;-13.9813756763278;0.143316026543745;1
58;HYDAT;SAINT-JEAN (RIVIERE) EN AMONT DU PONT-ROUTE 132;01BH012;48.76889;-64.515;1090;1091.107;1;0;406.6;8.8596;2.4852;298.213;1;82.6085;1;0.9581;0.0219;0.0004;0.0057;0.0064;0.0065;0.0007;0;1;-13.8165790654732;0.137104493078177;1
59;HYDAT;TETAGOUCHE RIVER NEAR WEST BATHURST;01BJ001;47.65583;-65.69361;363;376.4399;1;0;289.6;3.8296;2.4365;157.917;1;43.5187;1;0.9033;0.0304;0.0003;0.0081;0.0217;0.0116;0.024;0;1;-13.2440082159909;0.116404960609295;1
60;HYDAT;JACQUET RIVER NEAR DURHAM CENTRE;01BJ003;47.89381;-66.02522;500.8401;NaN;0;0;288.3;4.5346;2.2713;179.626;1;37.0591;1;0.9656;0.0167;0.001;0.0063;0.0034;0.0069;0.0001;0;1;-14.0321037743261;0.130573770654759;1
61;HYDAT;RESTIGOUCHE RIVER ABOVE RAFTING GROUND BROOK;01BJ007;47.90867;-66.94806;7821.0702;NaN;0;0;326.7;6.0146;2.5538;798.084;1;127.568;1;0.8748;0.0615;0.0142;0.0061;0.0076;0.0243;0.0115;0;1;-14.393700957917;0.159352509807781;1
62;HYDAT;MIDDLE RIVER NEAR BATHURST;01BJ010;47.60839;-65.72181;219.3819;NaN;0;0;214.9;1.6935;2.1054;110.234;1;60.7941;1;0.9089;0.0284;0.0018;0.0012;0.0112;0.011;0.0374;0;1;-13.6199999915229;0.111587302652853;1
63;HYDAT;EEL RIVER NEAR DUNDEE;01BJ012;47.98789;-66.49061;43.7296;NaN;0;0;220.1;4.0811;1.8381;42.944;1;29.4444;1;0.8843;0.042;0.0006;0.0026;0.0199;0.0121;0.0385;0;1;-15.1999998092651;0.189999997615814;1
64;HYDAT;FORTY MILE BROOK (WEST BRANCH) AT CARIBOU DEPOT;01BK006;47.55944;-66.27833;13;NaN;0;1;407.1;4.2786;NaN;NaN;0;55.3856;1;1;0;0;0;0;0;0;0;1;NaN;NaN;0
65;HYDAT;BASS RIVER AT BASS RIVER;01BL001;47.65;-65.57778;175;174.4193;1;0;92.6;1.0839;1.6748;78.799;1;283.038;1;0.8874;0.0608;0.0067;0.0042;0.0195;0.0126;0.0082;0;1;-15.1999998092651;0.189999997615814;1
66;HYDAT;RIVIERE CARAQUET AT BURNSVILLE;01BL002;47.70561;-65.15539;175.9723;NaN;0;0;65.9;1.0588;1.4732;69.068;1;31.1441;1;0.8717;0.053;0.0198;0.0023;0.0127;0.0174;0.0231;0;1;-15.1999998092651;0.189999997615814;1
67;HYDAT;BIG TRACADIE RIVER AT MURCHY BRIDGE CROSSING;01BL003;47.43578;-65.10606;369.9525;NaN;0;0;99.3;1.2213;1.6727;113.736;1;60.1788;1;0.8731;0.0582;0.0049;0.0006;0.0121;0.0068;0.0444;0;1;-15.1999998092651;0.189999997615814;1
68;HYDAT;SOUTHWEST MIRAMICHI RIVER AT BLACKVILLE;01BO001;46.736;-65.82561;5127.2515;NaN;0;0;228.7;2.8066;2.5538;647.543;1;102.5158;1;0.8592;0.06;0.0227;0.008;0.0077;0.0333;0.009;0;1;-14.5942346910622;0.137124226657276;1
69;HYDAT;BARNABY RIVER BELOW SEMIWAGAN RIVER;01BO003;46.88861;-65.59556;484;510.4116;1;0;58.8;0.6778;1.588;128.902;1;316.6111;1;0.8594;0.0239;0.0483;0.005;0.0168;0.0193;0.0273;0;1;-15.1999998092651;0.189999997615814;1
70;HYDAT;BARTIBOG RIVER BELOW HIGHWAY NO. 8;01BO004;47.19083;-65.3975;316;350.0293;1;0;107.3;1.3335;1.5538;109.206;1;106.652;1;0.895;0.0364;0.0419;0.003;0.0094;0.0138;0.0004;0;1;-15.1999998092651;0.189999997615814;1
71;HYDAT;LITTLE SOUTHWEST MIRAMICHI RIVER AT LYTTLETON;01BP001;46.93597;-65.90739;1326.3559;NaN;0;0;372.8;4.0354;2.243;289.033;1;113.0289;1;0.8811;0.04;0.0107;0.023;0.0073;0.0366;0.0012;0;1;-14.3285116409606;0.090209643015798;1
72;HYDAT;CATAMARAN BROOK AT REPAP ROAD BRIDGE;01BP002;46.85656;-66.19011;24.1565;NaN;0;0;260;2.7819;1.6975;29.53;1;90.5371;1;0.8816;0.0518;0.0018;0.0141;0.007;0.0436;0;0;1;-13.5323528682484;0.128235295414925;1
73;HYDAT;NORTHWEST MIRAMICHI RIVER AT TROUT BROOK;01BQ001;47.09475;-65.8365;972.6794;NaN;0;0;246.9;2.9167;2.1598;238.224;1;87.2314;1;0.9021;0.0435;0.0085;0.0118;0.0082;0.0251;0.0007;0;1;-13.2303138037721;0.111982883552034;1
74;HYDAT;COAL BRANCH RIVER AT BEERSVILLE;01BS001;46.44394;-65.06494;179.088;NaN;0;0;75.3;0.9713;1.6231;76.942;1;34.8168;1;0.8298;0.0521;0.034;0.0045;0.0172;0.0473;0.0152;0;1;-15.1999998092651;0.189999997615814;1
75;HYDAT;KINNEAR RIVER NEAR HAUTE-ABOUJAGANE;01BT001;46.15278;-64.385;32.1;NaN;0;1;25.9;1.4202;NaN;NaN;0;278.6407;1;0.8;0;0;0;0;0;0.2;0;1;NaN;NaN;0
76;HYDAT;PETITCODIAC RIVER NEAR PETITCODIAC;01BU002;45.94639;-65.16819;410.8073;NaN;0;0;89.9;2.3014;2.2385;160.842;1;103.8216;1;0.6769;0.0534;0.008;0.0016;0.0405;0.0345;0.1852;0;1;-15.1999998092651;0.189999997615814;1
77;HYDAT;PALMERS CREEK NEAR DORCHESTER;01BU004;45.88722;-64.51639;34.2;NaN;0;1;32.9;2.2898;NaN;NaN;0;270.9562;1;0.8947;0;0;0;0;0.1053;0;0;1;NaN;NaN;0
78;HYDAT;HAYWARD BROOK SITE NO. 1 NEAR PETITCODIAC;01BU005;45.86528;-65.15806;4.3;NaN;0;1;146.8;2.5911;NaN;NaN;0;305.6321;1;0.9231;0.0769;0;0;0;0;0;0;1;NaN;NaN;0
79;HYDAT;HAYWARD BROOK SITE NO. 4 NEAR PETITCODIAC;01BU006;45.87806;-65.18056;1.37;NaN;0;1;82.3;2.5064;NaN;NaN;0;220.0435;1;1;0;0;0;0;0;0;0;1;NaN;NaN;0
80;HYDAT;HAYWARD BROOK SITE NO. 5 NEAR PETITCODIAC;01BU007;45.87139;-65.185;6.49;NaN;0;1;102.4;3.4973;NaN;NaN;0;319.9512;1;1;0;0;0;0;0;0;0;1;NaN;NaN;0
81;HYDAT;HAYWARD BROOK SITE NO. 6 NEAR PETITCODIAC;01BU008;45.87306;-65.18778;2.34;NaN;0;1;85.3;3.3089;NaN;NaN;0;346.104;1;1;0;0;0;0;0;0;0;1;NaN;NaN;0
82;HYDAT;HOLMES BROOK SITE NO. 9 NEAR PETITCODIAC;01BU009;45.88786;-65.14678;5.7856;NaN;0;0;140.6;2.6504;1.2248;10.45;1;297.2656;1;0.7046;0.201;0.0251;0;0;0.0392;0.03;0;1;-15.1999998092651;0.189999997615814;1
83;HYDAT;BLACK RIVER AT GARNET SETTLEMENT;01BV004;45.30658;-65.84922;39.7518;NaN;0;0;145.6;3.4124;1.7951;40.18;1;176.8697;1;0.8884;0.0165;0.0034;0.0204;0.0506;0.0206;0.0001;0;1;-12.5;0.090000003576279;1
84;HYDAT;RATCLIFFE BROOK BELOW OTTER LAKE;01BV005;45.36778;-65.81167;29.3;NaN;0;1;126;2.3123;NaN;NaN;0;252.1797;1;0;0;0;0;0;0;1;0;1;NaN;NaN;0
85;HYDAT;POINT WOLFE RIVER AT FUNDY NATIONAL PARK;01BV006;45.55856;-65.01597;135.8831;NaN;0;0;289.7;4.9727;1.8948;78.363;1;145.8645;1;0.9454;0.0178;0.0032;0.0086;0.008;0.0171;0;0;1;-14.6984455968432;0.127409325063306;1
86;HYDAT;UPPER SALMON RIVER NEAR ALMA;01BV007;45.61111;-64.95611;181;170.9641;1;0;297.5;4.5824;1.276;59.522;1;157.8822;1;0.9139;0.0335;0.003;0.0051;0.0178;0.0257;0.0009;0;1;-14.8949789103105;0.178702927159465;1
87;HYDAT;BIG SALMON RIVER NEAR ST. MARTINS;01BV008;45.42417;-65.41167;287;259.5318;1;0;276.3;5.0706;1.5525;89.59;1;138.295;1;0.8927;0.0422;0.0067;0.01;0.0169;0.0307;0.0002;0;1;-13.1202186678277;0.075683062244716;1
88;HYDAT;DICKSON BROOK AT FUNDY NATIONAL PARK;01BV010;45.59142;-64.95706;8.81;NaN;0;1;63.7;5.712;NaN;NaN;0;94.421;1;0;0;0;0;1;0;0;0;1;NaN;NaN;0
89;HYDAT;CARRUTHERS BROOK NEAR ST. ANTHONY;01CA003;46.74411;-64.187;48.4319;NaN;0;0;40.8;0.6575;1.6255;40.047;1;83.0604;1;0.5136;0.037;0.024;0;0.0344;0.0517;0.3394;0;1;-15.1999998092651;0.189999997615814;1
90;HYDAT;SMELT CREEK NEAR ELLERSLIE;01CA004;46.60167;-63.93722;17.3;NaN;0;1;14.9;0.7135;NaN;NaN;0;39.3032;1;0;0;0;0;0;0;0;0;1;NaN;NaN;0
91;HYDAT;NORTH BROOK NEAR WALL ROAD;01CB005;46.34694;-63.63278;12.9;NaN;0;1;30.4;1.438;NaN;NaN;0;243.6315;1;0;0;0;0;0;0;1;0;1;NaN;NaN;0
92;HYDAT;EMERALD BROOK NEAR EMERALD;01CB006;46.35944;-63.55806;5.59;NaN;0;1;34.7;1.5119;NaN;NaN;0;183.3169;1;0;0;0;0;0;0;1;0;1;NaN;NaN;0
93;HYDAT;EAST BRANCH DUNK RIVER AT ELLIOTT;01CB007;46.36306;-63.46333;10.7;NaN;0;1;77.7;3.0593;NaN;NaN;0;256.5874;1;0.8571;0;0;0;0;0;0.1429;0;1;NaN;NaN;0
94;HYDAT;DUNK RIVER NEAR BREADALBANE;01CB008;46.35167;-63.48833;19.8;NaN;0;1;72.4;2.8065;NaN;NaN;0;261.8789;1;0.2;0;0;0;0;0;0.8;0;1;NaN;NaN;0
95;HYDAT;DAMES BROOK NEAR NEWTON;01CB010;46.34694;-63.55528;16.2;NaN;0;1;42.3;1.7457;NaN;NaN;0;255.6352;1;0;0;0;0;0;0;1;0;1;NaN;NaN;0
96;HYDAT;ELMO RIVER NEAR SCALES POND;01CB012;46.33861;-63.59778;7.9;NaN;0;1;37.2;1.478;NaN;NaN;0;317.9926;1;0.3571;0.3571;0;0;0;0;0.2857;0;1;NaN;NaN;0
97;HYDAT;SOUTHWEST BROOK NEAR MIDDLETON;01CB014;46.33472;-63.63417;23.4;NaN;0;1;34.1;1.5351;NaN;NaN;0;237.4959;1;0;0;0;0;0;0;1;0;1;NaN;NaN;0
98;HYDAT;CAPE TRAVERSE RIVER AT CARLETON;01CB015;46.25667;-63.65556;6.89;NaN;0;1;13.7;0.7718;NaN;NaN;0;165.2912;1;0;0.4737;0;0;0.4211;0;0.1053;0;1;NaN;NaN;0
99;HYDAT;WRIGHTS CREEK NEAR AVONLEA ROAD;01CC004;46.27583;-63.11194;2.41;NaN;0;1;20.5;1.7064;NaN;NaN;0;113.1561;1;0;0;0;0;0;0;1;0;1;NaN;NaN;0
100;HYDAT;WEST RIVER AT RIVERDALE;01CC005;46.23139;-63.35108;70.3337;NaN;0;0;80.9;3.6447;1.4877;44.205;1;121.4593;1;0.4811;0.0325;0.0074;0.0002;0.0484;0.0213;0.4091;0;1;-15.1999998092651;0.189999997615814;1
101;HYDAT;BEAR RIVER AT ST. MARGARETS;01CD005;46.45314;-62.38233;15.3296;NaN;0;0;49.4;1.0828;1.7284;23.973;1;308.6921;1;0.8527;0.0173;0.0009;0.0011;0.0166;0.0161;0.0953;0;1;-15.1999998092651;0.189999997615814;1
102;HYDAT;BRUDENELL RIVER NEAR BRUDENELL;01CE003;46.20056;-62.64944;36;NaN;0;1;32.7;1.2649;NaN;NaN;0;98.5141;1;1;0;0;0;0;0;0;0;1;NaN;NaN;0
103;HYDAT;BRUDENELL RIVER AT BRUDENELL;01CE004;46.20194;-62.65639;33.1;NaN;0;1;35.2;1.3213;NaN;NaN;0;98.8887;1;0;0;0;0;0;0;1;0;1;NaN;NaN;0
104;HYDAT;MONTAGUE RIVER NEAR HEAD OF MONTAGUE;01CE005;46.15528;-62.72611;44.4;NaN;0;1;49.2;1.7108;NaN;NaN;0;84.6807;1;0.3571;0;0;0;0;0;0.6429;0;1;NaN;NaN;0
105;HYDAT;CORNWALLIS RIVER AT CAMBRIDGE STATION;01DD002;45.06478;-64.63533;91.327;NaN;0;0;73.7;2.1865;1.5691;53.264;1;107.8646;1;0.3282;0.0364;0.0062;0.0012;0.0931;0.0374;0.4975;0;1;-13.2611110702394;0.217619053738576;1
106;HYDAT;SHARPE BROOK AT LLOYDS;01DD004;45.025;-64.63722;8.81;NaN;0;1;128.1;3.6861;NaN;NaN;0;320.5105;1;1;0;0;0;0;0;0;0;1;NaN;NaN;0
107;HYDAT;NORTH BROOK AT SHEFFIELD MILLS;01DD005;45.15056;-64.475;14.6391;NaN;0;0;56.6;3.3344;1.3548;18.411;1;156.1907;1;0.3297;0.0467;0.005;0.0025;0.0591;0.0217;0.5353;0;1;-14.6857141313099;0.170952379703522;1
108;HYDAT;BEAVERBANK RIVER NEAR KINSAC;01DG003;44.85111;-63.66389;96.5075;NaN;0;0;123.8;2.4995;1.5158;52.919;1;99.7265;1;0.7288;0.0568;0.0237;0.0619;0.0967;0.032;0;0;1;-13.544776119403;0.230820902748339;1
109;HYDAT;SHUBENACADIE RIVER AT ENFIELD;01DG006;44.93194;-63.53444;389;412.2891;1;0;85.2;2.4416;2.1372;149.115;1;295.5575;1;0.6453;0.0517;0.0139;0.1217;0.1286;0.0362;0.0025;0;1;-13.6716418088372;0.216735081166835;1
110;HYDAT;SALMON RIVER AT MURRAY;01DH002;45.36917;-63.21544;363;379.7195;1;0;166.7;2.6011;1.9579;142.007;1;238.1288;1;0.6924;0.1207;0.0339;0.0057;0.0761;0.0456;0.0255;0;1;-14.8667801218504;0.178143099420014;1
111;HYDAT;FRASER BROOK NEAR ARCHIBALD;01DH003;45.34306;-63.16806;10.1;NaN;0;1;140.6;3.019;NaN;NaN;0;0.3715;1;1;0;0;0;0;0;0;0;1;NaN;NaN;0
112;HYDAT;FIVE ISLANDS RIVER NEAR BRITISH LAKE;01DJ004;45.53556;-64.01528;8.81;NaN;0;1;277.3;2.0331;NaN;NaN;0;225.0822;1;1;0;0;0;0;0;0;0;1;NaN;NaN;0
113;HYDAT;GREAT VILLAGE RIVER NEAR SCRABBLE HILL;01DJ005;45.43822;-63.598;88.4299;NaN;0;0;222.5;4.0458;1.3716;45.771;1;154.8063;1;0.7427;0.1328;0.0257;0.0006;0.0547;0.0304;0.0132;0;1;-14.3841668526332;0.081499999916802;1
114;HYDAT;KELLEY RIVER (MILL CREEK) AT EIGHT MILE FORD;01DL001;45.58681;-64.45069;66.7891;NaN;0;0;108;1.7311;1.4147;41.026;1;102.1216;1;0.8773;0.0098;0.0519;0;0.041;0.02;0;0;1;-15.1999998092651;0.189999997615814;1
115;HYDAT;WALLACE RIVER AT WENTWORTH CENTRE;01DN004;45.67833;-63.55972;298;295.2271;1;0;174.1;4.4893;1.4325;62.592;1;319.2697;1;0.7956;0.0821;0.0182;0.0074;0.0324;0.0407;0.0235;0;1;-14.1199052819709;0.115118484017196;1
116;HYDAT;ROARING RIVER AT WESTCHESTER STATION;01DN006;45.61861;-63.66417;43;NaN;0;1;145.1;3.4712;NaN;NaN;0;321.8459;1;0.3333;0;0.6667;0;0;0;0;0;1;NaN;NaN;0
117;HYDAT;WEST RIVER PHILIP AT COLLINGWOOD CORNER;01DN008;45.60667;-63.93417;46.9;NaN;0;1;134.4;5.0652;NaN;NaN;0;346.6202;1;0.4211;0;0;0;0.5789;0;0;0;1;NaN;NaN;0
118;HYDAT;RIVER JOHN AT WELSFORD;01DO001;45.72833;-63.0525;249;245.6218;1;0;117.7;2.9625;1.6472;101.279;1;335.0512;1;0.7104;0.0826;0.0195;0.0068;0.0454;0.0417;0.0935;0;1;-14.1446008503157;0.176690142138253;1
119;HYDAT;MIDDLE RIVER OF PICTOU AT ROCKLIN;01DP004;45.49739;-62.78019;94.2688;NaN;0;0;161.1;3.3809;1.5045;51.845;1;12.5264;1;0.7871;0.0716;0.0155;0.0028;0.0569;0.0423;0.0238;0;1;-15.1999998092651;0.189999997615814;1
120;HYDAT;SOUTH RIVER AT ST. ANDREWS;01DR001;45.55972;-61.90364;181.1664;NaN;0;0;110;3.1406;1.7213;82.222;1;269.1009;1;0.7653;0.0599;0.0192;0.0195;0.0463;0.0351;0.0546;0;1;-14.8976094295304;0.186215138975605;1
121;HYDAT;ROSEWAY RIVER AT LOWER OHIO;01EC001;43.83736;-65.36911;496.8623;NaN;0;0;111.6;1.2025;1.7631;139.933;1;141.6126;1;0.8418;0.0097;0.0299;0.0771;0.0131;0.0284;0;0;1;-14.7216941017276;0.085052006383929;1
122;HYDAT;BLUE HILL BOG BROOK NEAR JORDAN FALLS;01EC002;43.82833;-65.19472;22.8;NaN;0;1;43.3;1.0862;NaN;NaN;0;184.5442;1;1;0;0;0;0;0;0;0;1;NaN;NaN;0
123;HYDAT;MERSEY RIVER BELOW GEORGE LAKE;01ED005;44.33314;-65.20508;721.0334;NaN;0;0;148.9;1.5153;2.018;192.743;1;119.292;1;0.797;0.042;0.0115;0.0971;0.0242;0.0264;0.0019;0;1;-14.4822224588105;0.071626263243532;1
124;HYDAT;MERSEY RIVER BELOW MILL FALLS;01ED007;44.43678;-65.22186;287.443;NaN;0;0;177.4;1.5783;1.6416;98.975;1;154.383;1;0.7658;0.0844;0.0097;0.0801;0.0417;0.0182;0.0002;0;1;-14.2949752232537;0.019773868946873;1
125;HYDAT;BEAVERSKIN BROOK AT BEAVERSKIN LAKE;01ED008;44.305;-65.33639;1.09;NaN;0;1;120.8;1.158;NaN;NaN;0;27.215;1;0.2857;0;0;0.7143;0;0;0;0;1;NaN;NaN;0
126;HYDAT;ROGERS BROOK NEAR JAKES LANDING;01ED009;44.44611;-65.21667;8.74;NaN;0;1;123.2;2.1024;NaN;NaN;0;189.6615;1;1;0;0;0;0;0;0;0;1;NaN;NaN;0
127;HYDAT;ROGERS BROOK NEAR GRAFTON ROAD;01ED010;44.42694;-65.21528;1.4;NaN;0;1;126.8;2.5303;NaN;NaN;0;214.4796;1;1;0;0;0;0;0;0;0;1;NaN;NaN;0
128;HYDAT;SHELBURNE RIVER AT POLLARD'S FALLS BRIDGE;01ED013;44.21542;-65.24142;275.6975;NaN;0;0;134.1;1.2096;1.7084;100.956;1;67.7262;1;0.8101;0.0144;0.0331;0.1088;0.0066;0.0269;0;0;1;-14.233333597901;0.066290323622525;1
129;HYDAT;MOOSE PIT BROOK AT TUPPER LAKE;01EE005;44.46183;-65.04778;15.3486;NaN;0;0;143.7;2.0321;1.3197;18.393;1;213.991;1;0.8321;0.0567;0.0377;0;0.0423;0.0313;0;0;1;-15.6157896142257;0.079473682434151;1
130;HYDAT;WHITEBURN BROOK BELOW POLLOCK LAKE;01EE007;44.35278;-65.09083;9.49;NaN;0;1;119;2.0141;NaN;NaN;0;61.295;1;0.5;0;0;0;0;0;0.5;0;1;NaN;NaN;0
131;HYDAT;LAHAVE RIVER AT WEST NORTHFIELD;01EF001;44.44744;-64.59119;1251.0514;NaN;0;0;173.3;2.0952;1.5828;199.039;1;138.339;1;0.791;0.0358;0.0114;0.0604;0.0448;0.0301;0.0264;0;1;-14.3139213685923;0.068335267734604;1
132;HYDAT;GOLD RIVER AT MOSHER'S FALLS;01EG002;44.56444;-64.35167;370;367.272;1;0;162.2;2.1579;1.7721;125.166;1;110.4594;1;0.7746;0.0514;0.0317;0.0541;0.0435;0.0293;0.015;0;1;-13.9282572195071;0.038825689051129;1
133;HYDAT;EAST RIVER AT ST. MARGARETS BAY;01EH003;44.685;-63.87167;26.9;NaN;0;1;56.2;2.6467;NaN;NaN;0;215.9519;1;0.1429;0.4286;0;0;0;0.4286;0;0;1;NaN;NaN;0
134;HYDAT;SACKVILLE RIVER AT BEDFORD;01EJ001;44.73153;-63.66044;149.0319;NaN;0;0;109.3;2.3918;1.847;80.144;1;103.2676;1;0.6442;0.0514;0.0377;0.0485;0.185;0.0324;0.0007;0;1;-14.2584541062802;0.204057975847652;1
135;HYDAT;KEARNEY RUN AT MILLVIEW;01EJ002;44.71389;-63.68139;36;NaN;0;1;48.2;2.8774;NaN;NaN;0;64.111;1;0;0.35;0;0;0.65;0;0;0;1;NaN;NaN;0
136;HYDAT;LITTLE SACKVILLE RIVER AT MIDDLE SACKVILLE;01EJ004;44.76447;-63.6875;12.0012;NaN;0;0;86.4;3.2221;1.5422;18.993;1;102.1226;1;0.3744;0.0469;0.0141;0.0133;0.5374;0.012;0.0019;0;1;-16.5;0.119999997317791;1
137;HYDAT;MCINTOSH RUN AT OLD SAMBRO ROAD;01EJ006;44.61333;-63.62306;13.9;NaN;0;1;74;2.2116;NaN;NaN;0;35.3552;1;0.7143;0;0;0;0.2857;0;0;0;1;NaN;NaN;0
138;HYDAT;LITTLE WEST RIVER NEAR SHEET HARBOUR;01EM002;44.90111;-62.56083;45.8;NaN;0;1;42.5;2.8512;NaN;NaN;0;154.1174;1;0;0;1;0;0;0;0;0;1;NaN;NaN;0
139;HYDAT;LISCOMB RIVER AT LISCOMB MILLS;01EN002;45.015;-62.09583;389;376.5015;1;0;119.7;1.6704;1.9683;138.882;1;120.5229;1;0.7122;0.0777;0.0913;0.0508;0.0209;0.0451;0;0;1;-12.8238095328921;0.253095247605372;1
140;HYDAT;HALFWAY BROOK NEAR SHEET HARBOUR;01EN003;44.90389;-62.45444;16.9;NaN;0;1;44.9;1.7968;NaN;NaN;0;188.8903;1;0.9474;0;0.0526;0;0;0;0;0;1;NaN;NaN;0
141;HYDAT;ST. MARYS RIVER AT STILLWATER;01EO001;45.17439;-61.97992;1341.5062;NaN;0;0;139.5;2.4591;2.539;330.128;1;125.1428;1;0.7761;0.0834;0.0322;0.0306;0.0403;0.03;0.0075;0;1;-14.5649489353116;0.167589908827674;1
142;HYDAT;CLAM HARBOUR RIVER NEAR BIRCHTOWN;01ER001;45.46833;-61.46;45.1;NaN;0;1;98.4;1.938;NaN;NaN;0;141.9625;1;1;0;0;0;0;0;0;0;1;NaN;NaN;0
143;HYDAT;ST. FRANCIS RIVER AT GOOSE HARBOUR LAKE;01ER002;45.53417;-61.41667;23.8;NaN;0;1;144.3;1.3264;NaN;NaN;0;191.6226;1;0;0;1;0;0;0;0;0;1;NaN;NaN;0
144;HYDAT;RIVER INHABITANTS AT GLENORA;01FA001;45.72025;-61.28611;194.0039;NaN;0;0;129.6;3.7902;1.4899;73.6;1;110.6683;1;0.8786;0.0305;0.0127;0.0021;0.0406;0.0127;0.0227;0;1;-14.6816850529486;0.113736262940716;1
145;HYDAT;NORTHEAST MARGAREE RIVER AT MARGAREE VALLEY;01FB001;46.36897;-60.97528;366.0081;NaN;0;0;365.2;7.4828;1.63;110.44;1;211.799;1;0.9056;0.0444;0.0051;0.0026;0.0281;0.0128;0.0015;0;1;-13.783527368723;0.046124031705883;1
146;HYDAT;SOUTHWEST MARGAREE RIVER NEAR UPPER MARGAREE;01FB003;46.22311;-61.13692;360.3085;NaN;0;0;171.8;4.7513;1.4831;99.767;1;221.5318;1;0.7555;0.0283;0.0043;0.161;0.0267;0.0132;0.0109;0;1;-13.9848722821369;0.184636545464514;1
147;HYDAT;APRIL BROOK AT GILLISDALE;01FB005;46.23139;-61.14167;6.22;NaN;0;1;110;6.9056;NaN;NaN;0;79.0453;1;1;0;0;0;0;0;0;0;1;NaN;NaN;0
148;HYDAT;LAKE O'LAW BROOK AT EGYPT ROAD;01FB006;46.31472;-60.97306;37.8;NaN;0;1;137;7.2337;NaN;NaN;0;259.5655;1;0.8571;0;0;0;0;0.1429;0;0;1;NaN;NaN;0
149;HYDAT;CHETICAMP RIVER BELOW CHETICAMP LAKE;01FC001;46.65111;-60.66306;49.2;NaN;0;1;479.7;1.6126;NaN;NaN;0;124.5455;1;0.9474;0.0526;0;0;0;0;0;0;1;NaN;NaN;0
150;HYDAT;WRECK COVE BROOK NEAR WRECK COVE;01FD001;46.52306;-60.42222;31;NaN;0;1;79.8;5.9041;NaN;NaN;0;86.7811;1;0;0;0;0;0;0;0;0;1;NaN;NaN;0
151;HYDAT;MIDDLE RIVER AT MACLENNANS CROSS;01FF001;46.19;-60.94181;121.1549;NaN;0;0;327;6.992;1.9346;75.446;1;159.3406;1;0.8934;0.05;0.0056;0;0.0244;0.02;0.0065;0;1;-14.0623531565947;0.056117647009737;1
152;HYDAT;RIVER DENYS AT BIG MARSH;01FG001;45.89369;-61.20475;16.6406;NaN;0;0;172.8;5.7715;1.6091;23.276;1;137.4481;1;0.8555;0.0896;0.0034;0;0.021;0.0184;0.012;0;1;-13.9000001160995;0.096956522730382;1
153;HYDAT;MACASKILLS BROOK NEAR BIRCH GROVE;01FJ002;46.11789;-60.00467;16.93;NaN;0;0;62.3;1.3134;1.5057;21.961;1;84.9509;1;0.9075;0.0081;0.0376;0.0272;0.0168;0.0027;0;0;1;-15.1999998092651;0.189999997615814;1
154;HYDAT;FIFES BROOK NEAR MILL POND;01FJ006;46.30083;-60.36583;34.3;NaN;0;1;32.9;1.6711;NaN;NaN;0;329.1931;1;0;0;0;0;0;0;0;0;1;NaN;NaN;0
155;HYDAT;PIGEON RIVER AT MIDDLE FALLS;02AA001;48.01222;-89.61611;1550;1541.84;1;0;479.9;4.0737;1.7898;247.359;1;155.5365;1;0.6743;0.0184;0.0694;0.1204;0.0291;0.0884;0;0;1;-14.1877788123438;0.092194470012001;1
156;HYDAT;PINE RIVER NEAR CROOKS;02AA002;48.07222;-89.53333;389;382.9898;1;0;375.1;5.0591;1.634;119.236;1;164.2941;1;0.8115;0.0172;0.0035;0.0223;0.0333;0.0908;0.0215;0;1;-15.3407643312102;0.111305731615633;1
157;HYDAT;NEEBING RIVER NEAR THUNDER BAY;02AB008;48.38339;-89.30656;212.1547;NaN;0;0;295.6;1.3351;1.5717;80.815;1;151.2879;1;0.6077;0.0087;0.0158;0.0018;0.0598;0.0749;0.2312;0;1;-15.5533762192803;0.10964630100385;1
158;HYDAT;NORTH CURRENT RIVER NEAR THUNDER BAY;02AB014;48.51956;-89.17503;104.6978;NaN;0;0;451.1;3.5813;2.2724;82.066;1;205.3474;1;0.7365;0.0479;0.0128;0.0471;0.023;0.1319;0.0009;0;1;-13.8071898541419;0.028169935252639;1
159;HYDAT;WHITEFISH RIVER AT NOLALU;02AB017;48.29211;-89.80986;225.8112;NaN;0;0;484.8;3.0372;1.8367;97.453;1;139.7824;1;0.7566;0.022;0.0149;0.0101;0.0321;0.1384;0.0259;0;1;-15.1095239775521;0.069047617969946;1
160;HYDAT;MCVICAR CREEK AT THUNDER BAY;02AB019;48.4492;-89.21861;45.6287;NaN;0;0;332.1;2.2802;1.7011;40.563;1;142.467;1;0.744;0.0063;0.0074;0.0054;0.1469;0.0572;0.0328;0;1;-14.7823530926424;0.081176470499486;1
161;HYDAT;CURRENT RIVER AT STEPSTONE;02AB021;48.56244;-89.24067;406.8376;NaN;0;0;470.9;2.9398;2.1786;155.068;1;258.1096;1;0.7364;0.0592;0.0157;0.0528;0.0062;0.1295;0.0002;0;1;-14.0601332623301;0.011993355352889;1
162;HYDAT;CORBETT CREEK NEAR MURILLO;02AB022;48.42862;-89.54563;42.5708;NaN;0;0;388.8;2.2284;1.6997;39.149;1;175.8971;1;0.6742;0.0142;0.0022;0.0035;0.0312;0.0484;0.2263;0;1;-12.6600000063578;0.089666669970999;1
163;HYDAT;SLATE RIVER NEAR THUNDER BAY;02AB023;48.32576;-89.40421;180.8832;NaN;0;0;301.2;3.2915;1.8033;85.638;1;71.5492;1;0.5703;0.0075;0.0034;0.0038;0.0327;0.0497;0.3325;0;1;-15.1315789473684;0.109736841564116;1
164;HYDAT;NEEBING RIVER NEAR INTOLA;02AB024;48.44281;-89.35776;54.2052;NaN;0;0;383.4;2.3325;1.7364;45.13;1;158.5334;1;0.7871;0.0063;0.0122;0.0049;0.0347;0.062;0.0927;0;1;-13.2493671224087;0.087468356719311;1
165;HYDAT;WOLF RIVER AT HIGHWAY NO. 17;02AC001;48.82169;-88.53461;726.3915;NaN;0;0;388;2.5669;2.1863;207.882;1;59.6234;1;0.7551;0.0184;0.0048;0.062;0.0269;0.1323;0.0005;0;1;-13.199631163115;0.123099635616357;1
166;HYDAT;BLACK STURGEON RIVER AT HIGHWAY NO. 17;02AC002;48.90422;-88.37686;2623.5194;NaN;0;0;362.5;2.496;2.7188;491.169;1;79.5753;1;0.7199;0.0242;0.0099;0.0847;0.0115;0.1498;0;0;1;-12.9793651705819;0.112713777728634;1
167;HYDAT;BLACKWATER RIVER AT BEARDMORE;02AD010;49.59761;-87.96544;651.9126;NaN;0;0;382.2;2.0301;2.1505;193.563;1;321.9615;1;0.8449;0.0029;0.015;0.0482;0.0097;0.0793;0;0;1;-14.6126787969671;0.165541921197561;1
168;HYDAT;GRAVEL RIVER NEAR CAVERS;02AE001;48.926;-87.69019;607.9788;NaN;0;0;444.5;4.9066;3.1875;277.21;1;202.3985;1;0.8246;0.003;0.0043;0.0879;0.0053;0.0749;0;0;1;-14.1000003814697;0.009999999776483;1
169;HYDAT;STEEL RIVER NEAR TERRACE BAY;02BA002;48.77778;-86.88444;1190;1240.858;1;0;379.5;3.9464;2.2203;272.243;1;118.9208;1;0.5708;0.0619;0.0143;0.0903;0.007;0.2557;0;0;1;-14.0267860633986;0.017857142815566;1
170;HYDAT;LITTLE PIC RIVER NEAR COLDWELL;02BA003;48.84911;-86.60722;1324.1737;NaN;0;0;328.1;3.3858;2.8481;365.555;1;160.5109;1;0.7822;0.0176;0.01;0.0754;0.004;0.1108;0;0;1;-14.0243411325296;0.014259634845518;1
171;HYDAT;WHITESAND RIVER ABOVE SCHREIBER AT MINOVA MINE;02BA005;48.97811;-87.37678;10.8141;NaN;0;0;506;3.7837;1.4632;16.978;1;248.5912;1;0.5695;0.0074;0.0099;0.0785;0.0002;0.3343;0;0;1;-12.9000000953674;0.07000000262633;1
172;HYDAT;STEEL RIVER BELOW SANTOY LAKE;02BA006;48.81371;-86.85934;1187.003;NaN;0;0;379.3;4.0306;2.7952;339.649;1;120.4664;1;0.5725;0.0618;0.0139;0.091;0.0066;0.2541;0;0;1;-14.0044796261248;0.019249720056724;1
173;HYDAT;BLACK RIVER NEAR MARATHON;02BB002;48.68889;-86.2125;1980;2157.726;1;0;336.8;2.8572;1.7607;290.062;1;214.9464;1;0.8457;0.0093;0.0204;0.0599;0.0052;0.0596;0;0;1;-13.949460992387;0.034979969350899;1
174;HYDAT;PIC RIVER NEAR MARATHON;02BB003;48.77408;-86.29661;4221.7367;NaN;0;0;330;2.8495;3.2829;752.184;1;212.8814;1;0.7158;0.0347;0.0158;0.0573;0.0032;0.1731;0;0;1;-14.037087147737;0.025707733620765;1
175;HYDAT;PUKASKWA RIVER AT PUKASKWA NATIONAL PARK;02BC005;48.06092;-85.80336;533;550.4228;1;0;447.2;4.7746;2.1396;170.838;1;168.2127;1;0.8877;0.0025;0.0045;0.0433;0.0018;0.0603;0;0;1;-14.0502706398835;0.012486486381071;1
176;HYDAT;PUKASKWA RIVER BELOW FOX RIVER;02BC006;48.16039;-85.73092;407.3774;NaN;0;0;465.2;4.9061;2.2813;162.588;1;227.5891;1;0.8744;0.003;0.0047;0.0469;0.0023;0.0687;0;0;1;-14.0250839756484;0.013745819352393;1
177;HYDAT;BATCHAWANA RIVER NEAR BATCHAWANA;02BF001;47.00353;-84.51556;1227.6381;NaN;0;0;437.7;5.4805;2.9311;363.228;1;217.0013;1;0.8509;0.0119;0.0081;0.0537;0.0252;0.0503;0;0;1;-13.5998302748087;0.066545867389606;1
178;HYDAT;GOULAIS RIVER NEAR SEARCHMONT;02BF002;46.86094;-83.97181;1138.6729;NaN;0;0;480.6;4.8343;2.3745;283.48;1;197.5601;1;0.8798;0.0011;0.0074;0.0698;0.0183;0.0237;0;0;1;-13.9130039861351;0.023223443451464;1
179;HYDAT;BENNET CREEK AT SAULT STE. MARIE;02BF003;46.53139;-84.3975;18.6;NaN;0;1;192.4;0.8275;NaN;NaN;0;140.1251;1;0.95;0;0;0;0;0.05;0;0;1;NaN;NaN;0
180;HYDAT;BIG CARP RIVER NEAR SAULT STE. MARIE;02BF004;46.51589;-84.46518;50.9764;NaN;0;0;272.4;2.3315;1.9711;49.836;1;137.7273;1;0.7756;0.0128;0.0162;0.0199;0.0314;0.0534;0.0907;0;1;-14.4864866669114;0.073243242260572;1
181;HYDAT;NORBERG CREEK (SITE A) ABOVE BATCHAWANA RIVER;02BF005;47.06253;-84.43072;10.3576;NaN;0;0;429.9;7.8568;1.4732;16.778;1;206.8793;1;0.7526;0;0;0.1203;0.0372;0.0898;0;0;1;-12.5;0.090000003576279;1
182;HYDAT;NORBERG CREEK (SITE B) AT OUTLET OF TURKEY LAKE;02BF006;47.05053;-84.41278;8.0309;NaN;0;0;433.1;6.9547;1.7884;17.936;1;201.3239;1;0.7483;0;0;0.1535;0.029;0.0692;0;0;1;-12.5;0.090000003576279;1
183;HYDAT;NORBERG CREEK (SITE C) AT OUTLET OF LITTLE TURKEY LAKE;02BF007;47.04472;-84.41025;5.0464;NaN;0;0;455.9;7.2971;1.8086;14.38;1;219.5259;1;0.7868;0;0;0.1158;0.0352;0.0622;0;0;1;-12.5;0.090000003576279;1
184;HYDAT;NORBERG CREEK (SITE D) BELOW WISHART LAKE;02BF008;47.04625;-84.40319;3.6162;NaN;0;0;479.5;7.6723;1.6413;11.049;1;197.7638;1;0.8255;0;0;0.0942;0.0352;0.0451;0;0;1;-12.5;0.090000003576279;1
185;HYDAT;NORBERG CREEK (SITE E) BELOW BATCHAWANA LAKE;02BF009;47.05778;-84.4;2.0435;NaN;0;0;517.4;7.1689;1.3741;6.957;1;197.6541;1;0.8882;0;0;0.0631;0.0293;0.0194;0;0;1;-12.5;0.090000003576279;1
186;HYDAT;ROOT RIVER AT SAULT STE. MARIE;02CA002;46.56286;-84.28169;108.493;NaN;0;0;345;3.793;2.2367;82.489;1;150.9711;1;0.7991;0.0149;0.0211;0.0521;0.0485;0.0533;0.0109;0;1;-13.9107597508008;0.073670887612278;1
187;HYDAT;AUBINADONG RIVER ABOVE SESABIC CREEK;02CB003;46.96842;-83.41686;1451.6638;NaN;0;0;485.3;4.5218;2.0266;273.093;1;122.1179;1;0.89;0.0026;0.0043;0.0741;0.0107;0.0182;0;0;1;-14.1000003814697;0.009999999776483;1
188;HYDAT;SERPENT RIVER ABOVE QUIRKE LAKE;02CD006;46.51158;-82.60028;157.0763;NaN;0;0;399.9;3.5292;1.9445;86.305;1;145.0564;1;0.6636;0.0033;0.0151;0.261;0.0185;0.0385;0;0;1;-14.0366070696286;0.18758928789092;1
189;HYDAT;LITTLE NORDIC CREEK AT ELLIOT LAKE;02CD007;46.35333;-82.64361;4.58;NaN;0;1;306;3.8328;NaN;NaN;0;179.432;1;0.5789;0;0;0;0.4211;0;0;0;1;NaN;NaN;0
190;HYDAT;MINISTIC CREEK ABOVE AGNEW LAKE;02CE007;46.42957;-81.60033;40.6;NaN;0;1;311.4;3.7924;NaN;NaN;0;169.6366;1;0.2632;0.7368;0;0;0;0;0;0;1;NaN;NaN;0
191;HYDAT;MINISTIC CREEK NEAR AGNEW LAKE MINE;02CE103;46.40833;-81.57778;41.2;NaN;0;1;284;3.5155;NaN;NaN;0;150.5436;1;1;0;0;0;0;0;0;0;1;NaN;NaN;0
192;HYDAT;WHITSON RIVER AT CHELMSFORD;02CF007;46.58336;-81.19911;277.4628;NaN;0;0;295.8;1.3651;2.2548;132.983;1;207.7749;1;0.4873;0.0372;0.0299;0.0349;0.0767;0.1833;0.1506;0;1;-14.669521425473;0.126171283456743;1
193;HYDAT;WHITSON RIVER AT VAL CARON;02CF008;46.61017;-81.03297;197.4138;NaN;0;0;300.8;1.6206;1.8591;92.487;1;224.7739;1;0.4831;0.0434;0.0352;0.0452;0.0859;0.2337;0.0735;0;1;-14.4880702570865;0.105508771172741;1
194;HYDAT;VERMILION RIVER NEAR VAL CARON;02CF011;46.68544;-81.00925;680.4289;NaN;0;0;398.9;3.0208;2.6654;246.027;1;147.6802;1;0.8481;0.0083;0.0151;0.0908;0.0125;0.0237;0.0015;0;1;-14.0816974396111;0.096850716009934;1
195;HYDAT;JUNCTION CREEK BELOW KELLEY LAKE;02CF012;46.42731;-81.09844;198.796;NaN;0;0;276.6;2.1255;2.1251;106.113;1;164.0391;1;0.2028;0.0702;0.0154;0.1227;0.3088;0.2802;0;0;1;-12.5914285932268;0.212071436962911;1
196;HYDAT;VERMILION RIVER NEAR CAPREOL;02CF100;46.715;-80.95028;635;627.4488;1;0;401.1;3.0335;1.9204;177.977;1;149.9215;1;0.8483;0.0084;0.0157;0.0925;0.012;0.0225;0.0006;0;1;-14.0637667371892;0.094892528455251;1
197;HYDAT;BLUE JAY CREEK NEAR TEHKUMMAH;02CG003;45.65169;-81.98661;12.5028;NaN;0;0;237.2;1.7417;1.4674;18.41;1;212.0976;1;0.6149;0;0;0;0.0284;0.0283;0.3283;0;1;-15.1999998092651;0.189999997615814;1
198;HYDAT;STURGEON RIVER AT UPPER GOOSE FALLS;02DC012;46.97025;-80.45878;955.9964;NaN;0;0;386.2;3.959;3.0009;328.172;1;152.6904;1;0.8823;0.0023;0.0162;0.0816;0.0073;0.0104;0;0;1;-14.7299853634453;0.156142648019363;1
199;HYDAT;LITTLE STURGEON RIVER BELOW BOOTH LAKE;02DC013;46.42761;-79.66203;163.6613;NaN;0;0;337.3;1.4993;1.8363;83.201;1;235.7015;1;0.8798;0.0049;0.051;0.0128;0.0414;0.0101;0;0;1;-14.1000003814697;0.009999999776483;1
200;HYDAT;VEUVE RIVER NEAR VERNER;02DD012;46.40819;-80.12281;934.0449;NaN;0;0;245.1;1.8576;2.5458;275.552;1;149.2184;1;0.7888;0.0182;0.0169;0.0424;0.0258;0.0636;0.0441;0;1;-14.1000003814697;0.009999999776483;1
201;HYDAT;LA VASE RIVER AT NORTH BAY;02DD013;46.26344;-79.39511;68.5897;NaN;0;0;237.4;1.4003;2.4333;71.404;1;282.3085;1;0.7977;0.0159;0.0097;0.0266;0.059;0.02;0.0711;0;1;-14.1000003814697;0.009999999776483;1
202;HYDAT;CHIPPEWA CREEK AT NORTH BAY;02DD014;46.31178;-79.44836;35.6388;NaN;0;0;305.1;2.1135;1.5603;32.998;1;193.5796;1;0.5359;0.093;0.0039;0.0076;0.3352;0.0174;0.0069;0;1;-14.1000003814697;0.009999999776483;1
203;HYDAT;COMMANDA CREEK NEAR COMMANDA;02DD015;45.94919;-79.60658;103.7789;NaN;0;0;354.7;2.4399;1.9621;70.877;1;268.4759;1;0.8931;0.0015;0.011;0.0616;0.0188;0.0039;0.0101;0;1;-14.1000003814697;0.009999999776483;1
204;HYDAT;NORTH MAGNETAWAN RIVER NEAR BURK'S FALLS;02EA005;45.66947;-79.37919;328.8449;NaN;0;0;408.5;4.2289;2.4887;160.066;1;226.3861;1;0.8816;0.0017;0.0081;0.0636;0.0307;0.0046;0.0097;0;1;-14.1000003814697;0.009999999776483;1
205;HYDAT;NORTH MAGNETAWAN RIVER ABOVE PICKEREL LAKE;02EA010;45.70377;-79.30879;155.0585;NaN;0;0;425.7;4.3552;2.1622;95.484;1;218.8997;1;0.9292;0.0013;0.0068;0.0229;0.0274;0.0055;0.0069;0;1;-14.1000003814697;0.009999999776483;1
206;HYDAT;HARRIS RIVER AT HIGHWAY NO. 69;02EA013;45.6875;-80.43944;35.5;NaN;0;1;199.2;0.5996;NaN;NaN;0;232.9283;1;1;0;0;0;0;0;0;0;1;NaN;NaN;0
207;HYDAT;MAGNETAWAN RIVER NEAR EMSDALE;02EA018;45.5567;-79.28798;402.5134;NaN;0;0;417;4.7768;2.4879;177.078;1;218.2458;1;0.8497;0.0012;0.0064;0.0927;0.0397;0.0028;0.0074;0;1;-14.1000003814697;0.009999999776483;1
208;HYDAT;SHAWANAGA RIVER BELOW SHAWANAGA LAKE;02EA021;45.55894;-80.03797;70.394;NaN;0;0;266;1.5606;2.8958;86.208;1;205.2654;1;0.855;0.0021;0.0138;0.0964;0.0203;0.0114;0.0011;0;1;-14.1000003814697;0.009999999776483;1
209;HYDAT;OXTONGUE RIVER NEAR DWIGHT;02EB014;45.31197;-78.98939;604.9002;NaN;0;0;455.8;3.973;3.7244;325.052;1;79.2023;1;0.8432;0.0008;0.0079;0.1271;0.0185;0.0024;0.0001;0;1;-14.1000003814697;0.009999999776483;1
210;HYDAT;ROSSEAU RIVER AT HIGHWAY NO. 141;02EB103;45.23889;-79.58361;130;129.9706;1;0;312.8;2.1318;2.1447;74.292;1;148.6784;1;0.9052;0.0006;0.0369;0.0405;0.0111;0.0019;0.0039;0;1;-14.1000003814697;0.009999999776483;1
211;HYDAT;HAWKROCK RIVER AT GRAVENHURST;02EB104;44.93222;-79.35639;40.7;NaN;0;1;254;1.5727;NaN;NaN;0;259.6631;1;1;0;0;0;0;0;0;0;1;NaN;NaN;0
212;HYDAT;BLACK RIVER NEAR WASHAGO;02EC002;44.71367;-79.28161;1510.27;NaN;0;0;298.1;1.7235;2.9203;403.292;1;205.5936;1;0.7231;0.0509;0.0172;0.1046;0.0184;0.0385;0.0473;0;1;-13.6545894843692;0.019682844346215;1
213;HYDAT;HOLLAND RIVER EAST BRANCH AT HOLLAND LANDING;02EC009;44.09492;-79.48956;176.0347;NaN;0;0;293.5;1.6268;1.8683;88.272;1;311.8465;1;0.2083;0.0664;0.0085;0.0061;0.3357;0.0051;0.3699;0;1;-15.7814049878396;0.110826443803828;1
214;HYDAT;SCHOMBERG RIVER NEAR SCHOMBERG;02EC010;44.01214;-79.68564;43.9614;NaN;0;0;282.5;1.7154;1.5538;36.693;1;53.5726;1;0.166;0.0049;0.0041;0.0047;0.0728;0;0.7475;0;1;-16.5;0.119999997317791;1
215;HYDAT;BEAVER RIVER NEAR BEAVERTON;02EC011;44.39708;-79.07083;291.2686;NaN;0;0;275.1;1.2048;2.1595;131.16;1;273.8313;1;0.1731;0.0169;0.0354;0.0053;0.0523;0.0204;0.6965;0;1;-12.8837094199389;0.073834584815834;1
216;HYDAT;PEFFERLAW BROOK NEAR UDORA;02EC018;44.26753;-79.19461;347.0491;NaN;0;0;288.6;1.6678;2.0042;132.916;1;343.2481;1;0.3149;0.0289;0.0079;0.0052;0.0701;0.02;0.5529;0;1;-14.9829114539714;0.100632909143084;1
217;HYDAT;BLACK RIVER NEAR VANKOUGHNET;02EC019;44.99256;-79.04956;353.8026;NaN;0;0;356.4;3.3916;3.0167;201.537;1;211.4593;1;0.8736;0.0014;0.0078;0.0955;0.0168;0.0034;0.0014;0;1;-14.1000003814697;0.009999999776483;1
218;HYDAT;HAWKESTONE CREEK AT HAWKESTONE;02EC020;44.49697;-79.46797;40.2;NaN;0;1;244.4;0.9621;NaN;NaN;0;113.0496;1;0;0;0;1;0;0;0;0;1;NaN;NaN;0
219;HYDAT;UXBRIDGE BROOK NEAR UXBRIDGE;02EC021;44.13808;-79.11276;40.6309;NaN;0;0;311.2;1.7956;1.6379;37.175;1;356.3873;1;0.3656;0.0652;0.0033;0.0024;0.1895;0.0255;0.3485;0;1;-16.5;0.119999997317791;1
220;HYDAT;NOTTAWASAGA RIVER NEAR BAXTER;02ED003;44.24981;-79.82142;1230.5778;NaN;0;0;317.4;1.7497;1.9279;240.782;1;58.6711;1;0.2037;0.0047;0.0007;0.0025;0.067;0.0019;0.7195;0;1;-14.6798094311522;0.115640259882021;1
221;HYDAT;COLDWATER RIVER AT COLDWATER;02ED007;44.70719;-79.64375;168.4638;NaN;0;0;278.3;2.4567;1.7126;79.043;1;347.7816;1;0.4974;0.0069;0.0041;0.0011;0.0692;0.0068;0.4146;0;1;-11.8000001907349;0.059999998658895;1
222;HYDAT;WYE RIVER NEAR WYEVALE;02ED013;44.64978;-79.90375;121.4888;NaN;0;0;227.6;1.094;1.8157;71.165;1;242.8615;1;0.279;0.0012;0.0145;0.0434;0.0629;0.0026;0.5963;0;1;-11.8000001907349;0.059999998658895;1
223;HYDAT;PINE RIVER NEAR EVERETT;02ED014;44.20003;-79.96;189.995;NaN;0;0;420.2;2.5886;1.9744;96.871;1;68.7651;1;0.3219;0.0014;0.0007;0.0031;0.0526;0.0013;0.619;0;1;-15.8399223837742;0.155542633128028;1
224;HYDAT;MAD RIVER AT AVENING;02ED015;44.30736;-80.07203;244.1433;NaN;0;0;471.5;2.0896;1.7495;97.281;1;53.0823;1;0.3012;0.0011;0.0132;0.0042;0.0452;0.0026;0.6326;0;1;-15.5608953846035;0.170567161712184;1
225;HYDAT;TRIBUTARY TO WYE RIVER BELOW ELMVALE;02ED016;44.5925;-79.87083;15.3;NaN;0;1;214.2;0.6399;NaN;NaN;0;278.8465;1;0;0;0;0;0;0;1;0;1;NaN;NaN;0
226;HYDAT;HOGG CREEK NEAR VICTORIA HARBOUR;02ED017;44.72606;-79.77897;57.9553;NaN;0;0;257.6;2.4194;1.6575;44.866;1;334.9484;1;0.4158;0.0019;0.0024;0.0008;0.0496;0.0007;0.5287;0;1;-11.8000001907349;0.059999998658895;1
227;HYDAT;STURGEON RIVER AT STURGEON BAY;02ED018;44.73028;-79.71972;103;93.4963;1;0;266.7;2.4259;2.0264;54.557;1;267.3867;1;0.6137;0.0061;0.0081;0.0175;0.05;0.0034;0.3013;0;1;-11.8000001907349;0.059999998658895;1
228;HYDAT;COPELAND CREEK NEAR PENETAGUISHENE;02ED019;44.76361;-79.95278;20.8;NaN;0;1;225.8;2.9488;NaN;NaN;0;45.5212;1;0.3158;0.3158;0;0;0.3684;0;0;0;1;NaN;NaN;0
229;HYDAT;NORTH RIVER AT THE FALLS;02ED024;44.76767;-79.57828;243.6059;NaN;0;0;235.8;1.4631;1.9499;108.204;1;324.2801;1;0.4577;0.0091;0.009;0.0333;0.0755;0.0077;0.4077;0;1;-12.2600002288818;0.049999998882413;1
230;HYDAT;BLACK ASH CREEK AT COLLINGWOOD;02ED025;44.50139;-80.23806;30.5;NaN;0;1;188.3;0.5517;NaN;NaN;0;10.4993;1;0;0;0;1;0;0;0;0;1;NaN;NaN;0
231;HYDAT;NOTTAWASAGA RIVER AT HOCKLEY;02ED026;44.02475;-79.96989;175.6832;NaN;0;0;441.6;2.1514;1.8114;85.504;1;95.8614;1;0.3687;0.0042;0.0013;0.0012;0.0549;0.0032;0.5663;0;1;-15.4403359789808;0.177058821090129;1
232;HYDAT;SILVER CREEK NEAR ORILLIA;02ED028;44.668;-79.45667;24;NaN;0;1;227;1.6458;NaN;NaN;0;276.2894;1;0.4;0;0;0;0.4667;0;0.1333;0;1;NaN;NaN;0
233;HYDAT;INNISFIL CREEK NEAR ALLISTON;02ED029;44.13122;-79.78097;479.459;NaN;0;0;258.1;1.5644;2.1331;166.296;1;327.5206;1;0.1569;0.005;0.0006;0.002;0.0616;0.002;0.772;0;1;-14.225806543904;0.090967739902196;1
234;HYDAT;SILVER CREEK AT ORILLIA;02ED030;44.64681;-79.45203;10.5144;NaN;0;0;251.8;1.8524;1.6669;19.224;1;12.5295;1;0.1935;0.0348;0.0088;0.0029;0.3479;0.005;0.407;0;1;-11.8000001907349;0.059999998658895;1
235;HYDAT;PRETTY RIVER AT COLLINGWOOD;02ED031;44.50006;-80.19872;68.2372;NaN;0;0;347.2;3.8911;2.0935;61.524;1;21.5659;1;0.3265;0.0009;0.0004;0.0004;0.0481;0.0012;0.6224;0;1;-15.3148936210795;0.12053191253638;1
236;HYDAT;WILLOW CREEK NEAR MINESING;02ED032;44.4425;-79.7995;231.2096;NaN;0;0;271.6;1.6838;1.599;86.486;1;198.1123;1;0.3558;0.0071;0.0022;0.0109;0.103;0.0043;0.5167;0;1;-11.8000001907349;0.059999998658895;1
237;HYDAT;NOTTAWASAGA RIVER NEAR ALLISTON;02ED101;44.11058;-79.89028;327.6043;NaN;0;0;395.4;2.3423;1.9617;126.438;1;76.9051;1;0.3359;0.0034;0.0009;0.0013;0.0506;0.0021;0.6058;0;1;-15.8630871548749;0.154295299477225;1
238;HYDAT;BOYNE RIVER AT EARL ROWE PARK;02ED102;44.1525;-79.89664;216.4313;NaN;0;0;399.2;1.8233;2.405;125.963;1;59.185;1;0.2001;0.0022;0.0009;0.0062;0.0677;0.0019;0.7209;0;1;-15.8407406469788;0.154444441914257;1
239;HYDAT;STOKES RIVER NEAR FERNDALE;02FA002;45.03697;-81.33636;59.8579;NaN;0;0;203.3;1.3515;1.6403;45.078;1;175.0688;1;0.3518;0.0046;0.0183;0.0259;0.0286;0.034;0.5368;0;1;-15.1999998092651;0.189999997615814;1
240;HYDAT;SAUBLE RIVER AT ALLENFORD;02FA004;44.53553;-81.17769;312.0277;NaN;0;0;252.9;1.0074;1.7582;110.486;1;286.7785;1;0.114;0.0008;0.0006;0.0026;0.0399;0.0007;0.8416;0;1;-14.5279068614161;0.1643023234034;1
241;HYDAT;SYDENHAM RIVER NEAR OWEN SOUND;02FB007;44.52225;-80.93019;182.9738;NaN;0;0;304.1;1.5252;2.0865;100.4;1;283.1462;1;0.3547;0.0021;0.0048;0.0065;0.0438;0.0035;0.5845;0;1;-15.1999998092651;0.189999997615814;1
242;HYDAT;BIGHEAD RIVER NEAR MEAFORD;02FB010;44.57017;-80.6485;298.0254;NaN;0;0;335.7;2.1957;1.8426;113.139;1;316.4007;1;0.2856;0.0011;0.007;0.0023;0.0371;0.0048;0.6621;0;1;-15.4606355443269;0.175965767727213;1
243;HYDAT;MILL CREEK NEAR RED WING;02FB012;44.46423;-80.48576;105.231;NaN;0;0;445.7;2.5253;1.817;66.31;1;283.4551;1;0.5027;0.0005;0.0041;0.009;0.033;0.004;0.4467;0;1;-15.4105632204405;0.178661969398529;1
244;HYDAT;BEAVER RIVER NEAR VANDELEUR;02FB013;44.34614;-80.53997;278.6197;NaN;0;0;472.5;1.6174;2.3239;138.03;1;290.9108;1;0.3043;0.004;0.0087;0.0309;0.0533;0.0041;0.5947;0;1;-15.2202070661159;0.188911914709627;1
245;HYDAT;BIGHEAD RIVER NEAR STRATHAVON;02FB014;44.47178;-80.77653;56.1865;NaN;0;0;339.9;2.0341;1.852;49.384;1;313.1727;1;0.3361;0.0029;0.0132;0.0034;0.0352;0.0018;0.6073;0;1;-15.1999998092651;0.189999997615814;1
246;HYDAT;CARRICK CREEK NEAR CARLSRUHE;02FC011;44.11339;-81.01925;156.4424;NaN;0;0;351.8;1.2213;2.4465;108.976;1;334.8096;1;0.2115;0.001;0.001;0.001;0.0485;0.0013;0.7356;0;1;-11.8000001907349;0.059999998658895;1
247;HYDAT;SAUGEEN RIVER ABOVE DURHAM;02FC016;44.18542;-80.78747;329;343.4618;1;0;478.6;0.8418;2.4335;140.387;1;246.1477;1;0.2877;0.001;0.0098;0.0056;0.0418;0.0052;0.6489;0;1;-15.1999998092651;0.189999997615814;1
248;HYDAT;BEATTY SAUGEEN RIVER NEAR HOLSTEIN;02FC017;44.09047;-80.74194;50.7306;NaN;0;0;460.8;1.1002;2.1353;54.144;1;233.7183;1;0.2651;0.0015;0.0203;0.0012;0.041;0.0015;0.6694;0;1;-15.1999998092651;0.189999997615814;1
249;HYDAT;TEESWATER RIVER AT TEESWATER;02FC020;44.00061;-81.28381;124.5671;NaN;0;0;334.9;1.0855;1.8172;72.234;1;277.052;1;0.1508;0.0014;0.0002;0.001;0.0394;0.0003;0.8068;0;1;-12.5157895841097;0.087368419491931;1
250;HYDAT;CAMP CREEK AT ALLAN PARK;02FC021;44.16106;-80.92911;99.871;NaN;0;0;366.7;1.593;1.9916;70.857;1;261.4229;1;0.2841;0.006;0.0039;0.0055;0.049;0.0062;0.6452;0;1;-14.579561922672;0.166277370068931;1
251;HYDAT;PINE RIVER AT LURGAN;02FD001;44.09467;-81.72578;155.8033;NaN;0;0;244.2;0.5472;1.6174;71.883;1;262.7227;1;0.0292;0.0002;0.0001;0.0005;0.0399;0.0003;0.9298;0;1;-11.8000001907349;0.059999998658895;1
252;HYDAT;LUCKNOW RIVER AT LUCKNOW;02FD002;43.96528;-81.51344;69.7997;NaN;0;0;294.4;1.1561;2.3733;70.614;1;290.2584;1;0.1975;0.0032;0.0017;0.003;0.0426;0.0035;0.7485;0;1;-11.8000001907349;0.059999998658895;1
253;HYDAT;NORTH PENETANGORE RIVER AT KINCARDINE;02FD003;44.17281;-81.63106;99.9804;NaN;0;0;266;0.7283;1.7538;62.424;1;251.8979;1;0.0412;0.0009;0.0011;0.0009;0.0487;0.0006;0.9067;0;1;-11.8000001907349;0.059999998658895;1
254;HYDAT;MIDDLE MAITLAND RIVER NEAR BELGRAVE;02FE008;43.81289;-81.30689;644.8211;NaN;0;0;365.7;0.536;2.4363;220.508;1;259.5944;1;0.1016;0.003;0.0003;0.0019;0.0474;0.0004;0.8455;0;1;-12.3601831942456;0.081418762789097;1
255;HYDAT;SOUTH MAITLAND RIVER AT SUMMERHILL;02FE009;43.68436;-81.54117;370.5649;NaN;0;0;325.6;0.6034;1.6437;112.795;1;242.3266;1;0.0878;0.0025;0.0028;0.0102;0.0403;0.0015;0.8548;0;1;-11.8000001907349;0.059999998658895;1
256;HYDAT;BOYLE DRAIN NEAR ATWOOD;02FE010;43.67634;-81.07485;205.0168;NaN;0;0;369.4;0.3581;1.8772;95.82;1;259.7269;1;0.054;0.0012;0;0.0009;0.0406;0.0002;0.9031;0;1;-12.5912728292292;0.090254543870687;1
257;HYDAT;BLYTH BROOK BELOW BLYTH;02FE014;43.76033;-81.46319;74.6601;NaN;0;0;335.5;0.8254;1.7776;54.737;1;231.7633;1;0.1643;0.0013;0;0;0.0483;0.0015;0.7845;0;1;-11.8000001907349;0.059999998658895;1
258;HYDAT;SOUTH MAITLAND RIVER AT ROXBORO;02FE016;43.57925;-81.40131;177.6173;NaN;0;0;334.9;0.4374;1.6724;79.462;1;241.8026;1;0.0515;0.0021;0.0002;0.0003;0.0397;0.0011;0.905;0;1;-11.8000001907349;0.059999998658895;1
259;HYDAT;LAKELET CREEK NEAR GORRIE;02FE017;43.89292;-81.06328;79.4209;NaN;0;0;371.5;0.9546;1.7597;55.859;1;204.3085;1;0.2224;0.0007;0.0064;0.0128;0.0487;0.0026;0.7064;0;1;-13.6283018723974;0.129905658475352;1
260;HYDAT;PARKHILL CREEK NEAR PARKHILL;02FF003;43.16972;-81.68333;124;126.9783;1;0;233.8;0.6286;1.7016;73.379;1;254.4039;1;0.11;0.0039;0.0012;0.0056;0.0433;0.0013;0.8347;0;1;-11.8000001907349;0.059999998658895;1
261;HYDAT;SOUTH PARKHILL CREEK NEAR PARKHILL;02FF004;43.16075;-81.73183;42.7189;NaN;0;0;219.9;0.6366;1.482;34.577;1;333.4832;1;0.0592;0.0032;0.0002;0.0001;0.0305;0;0.9068;0;1;-11.8000001907349;0.059999998658895;1
262;HYDAT;MORAY CREEK NEAR PARKHILL;02FF005;43.21667;-81.74556;28.5;NaN;0;1;184.7;0.2929;NaN;NaN;0;261.906;1;0;0;0;0;0;0;1;0;1;NaN;NaN;0
263;HYDAT;SHIPKA CREEK NEAR GRAND BEND;02FF006;43.27194;-81.75;33.7;NaN;0;1;185;0.3785;NaN;NaN;0;244.8219;1;1;0;0;0;0;0;0;0;1;NaN;NaN;0
264;HYDAT;BAYFIELD RIVER NEAR VARNA;02FF007;43.55125;-81.58953;460.3879;NaN;0;0;293.2;0.6938;2.3886;182.752;1;246.4857;1;0.0798;0.0033;0.0004;0.0025;0.0515;0.0019;0.8604;0;1;-11.8000001907349;0.059999998658895;1
265;HYDAT;PARKHILL CREEK ABOVE PARKHILL RESERVOIR;02FF008;43.16413;-81.63151;112.5331;NaN;0;0;240.4;0.5646;2.0715;78.42;1;240.1326;1;0.0784;0.0011;0;0;0.0376;0.0013;0.8816;0;1;-11.8000001907349;0.059999998658895;1
266;HYDAT;LITTLE AUSABLE RIVER NEAR LUCAN CROSSING;02FF013;43.18056;-81.44767;144;146.2778;1;0;291.5;0.5421;1.6103;75.337;1;257.0952;1;0.0378;0.0026;0.0003;0.0021;0.0477;0.0006;0.9087;0;1;-11.8000001907349;0.059999998658895;1
267;HYDAT;BLACK CREEK NEAR HENSALL;02FF014;43.41883;-81.49547;18.4077;NaN;0;0;289.2;0.6824;1.5606;23.885;1;241.374;1;0.0978;0.0019;0.0014;0.0025;0.0449;0;0.8514;0;1;-11.8000001907349;0.059999998658895;1
268;HYDAT;TRICKS CREEK NEAR CLINTON;02FF015;43.59031;-81.58411;22.1111;NaN;0;0;269.3;0.9204;1.9358;32.453;1;213.6182;1;0.1019;0.0176;0.0008;0.0315;0.1161;0.0005;0.7316;0;1;-11.8000001907349;0.059999998658895;1
269;HYDAT;IRVINE RIVER NEAR SALEM;02GA005;43.6936;-80.44531;168.3303;NaN;0;0;456.6;0.7277;1.7196;79.495;1;161.1695;1;0.1141;0.0042;0.0018;0.0006;0.0458;0.0018;0.8317;0;1;-15.1999998092651;0.189999997615814;1
270;HYDAT;NITH RIVER NEAR CANNING;02GA010;43.18972;-80.45503;1034.2846;NaN;0;0;354;1.063;2.4357;279.387;1;180.1127;1;0.1266;0.0049;0.0023;0.0054;0.065;0.0013;0.7946;0;1;-12.643902535076;0.092266856362693;1
271;HYDAT;CONESTOGO RIVER AT DRAYTON;02GA017;43.75694;-80.67111;324;334.3799;1;0;457.5;0.7033;1.4091;93.115;1;232.2216;1;0.0829;0.0049;0.0027;0.0033;0.0452;0.0018;0.8592;0;1;-12.8272341180355;0.099276594088433;1
272;HYDAT;NITH RIVER AT NEW HAMBURG;02GA018;43.37722;-80.71081;544.244;NaN;0;0;380.9;0.8439;2.1864;181.874;1;203.6682;1;0.1086;0.002;0.0013;0.0019;0.0452;0.001;0.8401;0;1;-13.0796196123828;0.108926628701105;1
273;HYDAT;O.A.C. FARM GAUGE NO. 5 AT GUELPH;02GA032;43.53139;-80.305;2.51;NaN;0;1;337.6;1.1072;NaN;NaN;0;160.6548;1;0;0;0;0;1;0;0;0;1;NaN;NaN;0
274;HYDAT;EAST CANAGAGIGUE CREEK NEAR FLORADALE;02GA035;43.65111;-80.57222;27.7;NaN;0;1;388.7;1.0191;NaN;NaN;0;174.7621;1;0;0;0;0;0;0;1;0;1;NaN;NaN;0
275;HYDAT;CANAGAGIGUE CREEK NEAR FLORADALE;02GA036;43.67;-80.59667;17.9;NaN;0;1;404.6;0.9381;NaN;NaN;0;147.317;1;0;0;0;0;0;0;1;0;1;NaN;NaN;0
276;HYDAT;SCHNEIDER CREEK AT KITCHENER;02GA037;43.43944;-80.47611;25.1;NaN;0;1;330.7;1.0421;NaN;NaN;0;72.2846;1;0;0;0;0;1;0;0;0;1;NaN;NaN;0
277;HYDAT;MOOREFIELD CREEK NEAR ROTHSAY;02GA042;43.823;-80.71786;60.3845;NaN;0;0;442.6;0.6171;2.4839;68.764;1;251.1514;1;0.1298;0.0042;0.0026;0.0005;0.0376;0.0028;0.8225;0;1;-11.8000001907349;0.059999998658895;1
278;HYDAT;HUNSBURGER CREEK NEAR WILMOT CENTRE;02GA043;43.36447;-80.63261;13.147;NaN;0;0;358.7;1.38;1.5385;19.902;1;208.4994;1;0.1592;0.0019;0;0;0.0581;0.0077;0.7731;0;1;-11.8000001907349;0.059999998658895;1
279;HYDAT;SILVER SPRING CREEK NEAR WILMOT CENTRE;02GA044;43.38367;-80.63617;3.6516;NaN;0;0;370;1.7639;1.3269;9.05;1;170.6938;1;0.1697;0.0066;0;0;0.0707;0.0218;0.7312;0;1;-11.8000001907349;0.059999998658895;1
280;HYDAT;HUNSBURGER CREEK NEAR HAYSVILLE;02GA045;43.36529;-80.63218;4.822;NaN;0;0;356.9;1.3866;1.4829;11.622;1;227.3052;1;0.1479;0;0;0;0.048;0;0.8042;0;1;-11.8000001907349;0.059999998658895;1
281;HYDAT;HUNSBURGER CREEK NEAR SCHINDELSTEDDLE;02GA046;43.38375;-80.62544;1.7679;NaN;0;0;365.5;1.1122;1.5605;7.412;1;233.9572;1;0.0649;0;0;0;0.0517;0;0.8833;0;1;-11.8000001907349;0.059999998658895;1
282;HYDAT;SPEED RIVER AT CAMBRIDGE;02GA047;43.42186;-80.33275;761.5878;NaN;0;0;370;1.2556;2.03;199.714;1;173.7802;1;0.2616;0.0184;0.0041;0.0111;0.1397;0.0029;0.5623;0;1;-15.1999998092651;0.189999997615814;1
283;HYDAT;GRAND RIVER NEAR DOON;02GA048;43.41281;-80.41703;2490;2459.349;1;0;425.2;0.8843;1.7775;322.047;1;175.2978;1;0.1327;0.0098;0.006;0.0149;0.1035;0.0031;0.73;0;1;-13.9262107783913;0.141296294302895;1
284;HYDAT;FAIRCHILD CREEK NEAR BRANTFORD;02GB007;43.14739;-80.15461;388.6434;NaN;0;0;249.1;1.035;1.8873;132.764;1;131.4248;1;0.2085;0.0104;0.0022;0.0028;0.1121;0.0038;0.6601;0;1;-14.8243808037894;0.175638092969145;1
285;HYDAT;MOUNT PLEASANT CREEK NEAR BURTCH;02GB011;43.06778;-80.26111;29;NaN;0;1;223.9;0.7864;NaN;NaN;0;56.5099;1;0.4;0;0;0.5;0.1;0;0;0;1;NaN;NaN;0
286;HYDAT;KETTLE CREEK AT ST. THOMAS;02GC002;42.77769;-81.214;330.8814;NaN;0;0;253.7;0.7196;1.861;120.931;1;180.372;1;0.0928;0.0053;0.0007;0.0025;0.0816;0.0003;0.8168;0;1;-11.8000001907349;0.059999998658895;1
287;HYDAT;VENISON CREEK NEAR BIG CREEK;02GC009;42.65417;-80.54861;81.4;99.3022;1;0;222;0.7369;1.7395;62.238;1;159.0115;1;0.2794;0.0019;0.0007;0.0007;0.0511;0.0013;0.6649;0;1;-11.8000001907349;0.059999998658895;1
288;HYDAT;BIG OTTER CREEK AT TILLSONBURG;02GC010;42.85731;-80.72358;354.1052;NaN;0;0;263.2;0.761;1.7899;120.292;1;134.6137;1;0.1294;0.0071;0.0008;0.0021;0.0619;0.0015;0.7972;0;1;-12.0133892881322;0.06815899440933;1
289;HYDAT;BIG CREEK NEAR KELVIN;02GC011;42.98681;-80.44469;154.0393;NaN;0;0;265.1;0.7145;2.154;95.451;1;112.6559;1;0.1445;0.0033;0.0007;0.0003;0.0502;0.0008;0.8001;0;1;-13.1827751552089;0.112870811631805;1
290;HYDAT;CATFISH CREEK NEAR SPARTA;02GC018;42.74608;-81.05694;294.4971;NaN;0;0;246.5;0.6842;1.6654;102.111;1;154.2869;1;0.0852;0.0055;0.0005;0.0016;0.0595;0.0009;0.8468;0;1;-11.8000001907349;0.059999998658895;1
291;HYDAT;VENISON CREEK NEAR WALSINGHAM;02GC021;42.65336;-80.54844;93.1529;NaN;0;0;223.3;0.7195;2.2544;77.76;1;162.4654;1;0.2611;0.0012;0.0008;0.0006;0.0518;0.0013;0.6831;0;1;-11.8000001907349;0.059999998658895;1
292;HYDAT;KETTLE CREEK ABOVE ST. THOMAS;02GC029;42.83519;-81.13472;134.081;NaN;0;0;268.5;0.753;1.7276;71.456;1;170.5685;1;0.0782;0.0009;0;0.0022;0.0501;0;0.8685;0;1;-11.8000001907349;0.059999998658895;1
293;HYDAT;CATFISH CREEK AT AYLMER;02GC030;42.77375;-80.98267;126.7012;NaN;0;0;243.3;0.603;1.4508;58.345;1;150.9816;1;0.0868;0.006;0.0009;0.0009;0.0562;0.0005;0.8487;0;1;-11.8000001907349;0.059999998658895;1
294;HYDAT;DODD CREEK BELOW PAYNES MILLS;02GC031;42.78739;-81.2675;99.561;NaN;0;0;245.4;0.6244;1.8806;67.039;1;188.596;1;0.0676;0.0056;0.0006;0.0003;0.0743;0.0006;0.8511;0;1;-11.8000001907349;0.059999998658895;1
295;HYDAT;HOLTBY DRAIN AT CONCESSION NO. 7 (KETTLE CONTROL);02GC032;42.88333;-81.13139;3.17;NaN;0;1;260;0.4937;NaN;NaN;0;160.8965;1;0;0;0;0;0;0;1;0;1;NaN;NaN;0
296;HYDAT;MADTER DRAIN AT CONCESSION NO. 7 (KETTLE TEST);02GC033;42.88139;-81.15583;4;NaN;0;1;261.5;0.778;NaN;NaN;0;144.6039;1;0;0;0;0;0;0;1;0;1;NaN;NaN;0
297;HYDAT;SANDUSK CREEK NEAR HAGERSVILLE;02GC034;42.95278;-80.16417;3.96;NaN;0;1;226;0.444;NaN;NaN;0;131.0179;1;0;0;0;0;0;1;0;0;1;NaN;NaN;0
298;HYDAT;SILVER CREEK NEAR GROVESEND;02GC036;42.67583;-80.95333;40.3;NaN;0;1;203.8;0.7693;NaN;NaN;0;158.7113;1;1;0;0;0;0;0;0;0;1;NaN;NaN;0
299;HYDAT;NANTICOKE CREEK NEAR DUNDURN;02GC037;42.96706;-80.3434;22.2;NaN;0;1;243.2;0.6642;NaN;NaN;0;146.5238;1;0;0;0;0;0.25;0;0.75;0;1;NaN;NaN;0
300;HYDAT;VENISON CREEK NEAR LANGTON;02GC038;42.72765;-80.62653;44.2;NaN;0;1;224.9;0.6885;NaN;NaN;0;175.5937;1;0;0;0;0;0;0;1;0;1;NaN;NaN;0
301;HYDAT;MIDDLE THAMES RIVER AT THAMESFORD;02GD004;43.05911;-80.99486;262.4022;NaN;0;0;329.7;1.1145;2.0866;120.637;1;145.2139;1;0.1164;0.0013;0.0005;0.0011;0.0541;0.0006;0.826;0;1;-11.8192092281277;0.060734461929839;1
302;HYDAT;THAMES RIVER NEAR INGERSOLL;02GD006;43.01861;-80.92583;554;556.052;1;0;314.4;1.0288;1.8119;154.31;1;135.5647;1;0.1086;0.0103;0.0014;0.0089;0.1194;0.0005;0.7509;0;1;-12.5234988040775;0.087663183815524;1
303;HYDAT;TROUT CREEK NEAR ST. MARYS;02GD009;43.27322;-81.10322;149.2702;NaN;0;0;354.2;1.1902;2.0676;90.135;1;251.998;1;0.1666;0.0054;0.0004;0.0251;0.0465;0.001;0.755;0;1;-11.8000001907349;0.059999998658895;1
304;HYDAT;FISH CREEK NEAR PROSPECT HILL;02GD010;43.22047;-81.23681;144.3512;NaN;0;0;312.8;0.661;2.2078;94.642;1;237.8048;1;0.059;0.0022;0.0001;0.0005;0.0359;0.0001;0.9022;0;1;-11.8000001907349;0.059999998658895;1
305;HYDAT;WYE CREEK NEAR THORNDALE;02GD013;43.09167;-81.15083;38.9;NaN;0;1;285.9;0.901;NaN;NaN;0;188.4048;1;0;0;0;0;0;0;1;0;1;NaN;NaN;0
306;HYDAT;TROUT CREEK NEAR FAIRVIEW;02GD019;43.29558;-80.97303;36;NaN;0;1;358.6;1.1251;NaN;NaN;0;163.4595;1;0;0;0;0;0;0;1;0;1;NaN;NaN;0
307;HYDAT;THAMES RIVER AT INNERKIP;02GD021;43.21531;-80.69186;148.8552;NaN;0;0;340.6;0.7389;1.8219;79.313;1;109.3011;1;0.0892;0.0009;0.0001;0.0015;0.0553;0.0002;0.8528;0;1;-13.839999961853;0.137999998033047;1
308;HYDAT;NISSOURI CREEK NEAR EMBRO;02GD022;43.13;-80.96333;29.1;NaN;0;1;317;1.2622;NaN;NaN;0;164.7072;1;0;0;0;0;0;0;1;0;1;NaN;NaN;0
309;HYDAT;THAMES RIVER NEAR TAVISTOCK;02GD023;43.30472;-80.85;34.2;NaN;0;1;345.9;0.8705;NaN;NaN;0;81.6154;1;0;0;0;0;0;0;1;0;1;NaN;NaN;0
310;HYDAT;WEBBER DRAIN AT HIGHWAY NO. 59 (PITTOCK CONTROL);02GD024;43.25639;-80.82333;3.72;NaN;0;1;347;0.6561;NaN;NaN;0;67.3614;1;1;0;0;0;0;0;0;0;1;NaN;NaN;0
311;HYDAT;GORING DRAIN AT CONCESSION NO. 13 (PITTOCK TEST);02GD025;43.28472;-80.82111;3.51;NaN;0;1;335.6;0.5799;NaN;NaN;0;64.5422;1;0.1;0;0;0;0;0;0.9;0;1;NaN;NaN;0
312;HYDAT;REYNOLDS CREEK NEAR PUTNAM;02GD027;42.98156;-80.95461;145.1355;NaN;0;0;280.8;0.9204;1.8023;77.547;1;157.553;1;0.0878;0.0016;0.0004;0.0036;0.0471;0.0004;0.8591;0;1;-11.8000001907349;0.059999998658895;1
313;HYDAT;STONEY CREEK AT LONDON;02GD028;43.022;-81.25344;37.3268;NaN;0;0;275.9;0.7438;1.7292;37.721;1;152.3531;1;0.0829;0.0229;0.0044;0.0043;0.2355;0.0008;0.649;0;1;-11.8000001907349;0.059999998658895;1
314;HYDAT;DINGMAN CREEK BELOW LAMBETH;02GE005;42.93411;-81.35131;148.5858;NaN;0;0;272.2;0.7168;2.041;88.861;1;200.1227;1;0.0868;0.0174;0.0038;0.0052;0.2753;0.0006;0.6108;0;1;-11.8000001907349;0.059999998658895;1
315;HYDAT;MCGREGOR CREEK NEAR CHATHAM;02GE007;42.3835;-82.09506;203.7962;NaN;0;0;197.6;0.37;1.6543;84.475;1;293.255;1;0.02;0.0018;0.0009;0.0047;0.0786;0.0001;0.8939;0;1;-16.5;0.119999997317791;1
316;HYDAT;OXBOW CREEK NEAR KILWORTH;02GE008;42.966;-81.41803;85.663;NaN;0;0;278.2;0.7443;2.255;74.518;1;175.7748;1;0.1021;0.0015;0;0.0006;0.0597;0.0002;0.8358;0;1;-11.8000001907349;0.059999998658895;1
317;HYDAT;O.A.C. FARM GAUGE NO. 2 NEAR MERLIN;02GF001;42.20972;-82.18056;11.4;NaN;0;1;183.8;0.543;NaN;NaN;0;137.3828;1;0;0;0;0;0;0;1;0;1;NaN;NaN;0
318;HYDAT;SYDENHAM RIVER NEAR ALVINSTON;02GG002;42.83081;-81.85172;701.179;NaN;0;0;237.4;0.5919;1.9673;186.058;1;208.5105;1;0.102;0.0044;0.0007;0.0016;0.0594;0.0004;0.8315;0;1;-12.7028816909139;0.071526145679815;1
319;HYDAT;SYDENHAM RIVER AT FLORENCE;02GG003;42.65061;-82.00839;1149.322;NaN;0;0;226.5;0.56;2.2191;268.751;1;211.9933;1;0.1066;0.0029;0.0004;0.0017;0.0555;0.0003;0.8326;0;1;-13.3564338310336;0.079869364641952;1
320;HYDAT;BEAR CREEK ABOVE WILKESPORT;02GG004;42.76444;-82.34167;609;545.6437;1;0;210.4;0.4489;1.9475;166.683;1;211.6629;1;0.0908;0.0027;0.003;0.0021;0.0475;0.0018;0.8522;0;1;-16.0049415025351;0.113680101490261;1
321;HYDAT;SYDENHAM RIVER AT STRATHROY;02GG005;42.95886;-81.62714;170.5939;NaN;0;0;258.3;0.6246;1.9151;89.316;1;237.8621;1;0.0951;0.007;0.001;0.0021;0.0821;0.0005;0.8121;0;1;-11.8000001907349;0.059999998658895;1
322;HYDAT;BEAR CREEK NEAR PETROLIA;02GG006;42.90583;-82.11911;248.7221;NaN;0;0;222.9;0.5254;1.781;100.304;1;227.0744;1;0.0829;0.0013;0.0004;0.0022;0.0464;0.0013;0.8655;0;1;-16.1189189343839;0.115135132561664;1
323;HYDAT;SYDENHAM RIVER NEAR DRESDEN;02GG007;42.59389;-82.10861;1240;1215.467;1;0;222.9;0.5337;1.8549;236.034;1;214.5805;1;0.1015;0.0027;0.0004;0.0019;0.0548;0.0003;0.8385;0;1;-13.4216539024385;0.080701961313363;1
324;HYDAT;BEAR CREEK BELOW BRIGDEN;02GG009;42.81203;-82.29842;535.6081;NaN;0;0;212.8;0.4443;2.1062;174.1;1;214.5133;1;0.0824;0.0026;0.0027;0.0019;0.049;0.0016;0.8598;0;1;-15.9255555788676;0.11266666414837;1
325;HYDAT;BLACK CREEK NEAR BRADSHAW;02GG013;42.76244;-82.25922;213.3576;NaN;0;0;202.4;0.2798;1.9897;103.84;1;224.256;1;0.0838;0.0016;0.0027;0.0004;0.0397;0.0011;0.8708;0;1;-16.1844523096253;0.115971728856593;1
326;HYDAT;ST. CLAIR RIVER AT PORT HURON;02GG014;42.98694;-82.42472;576013;603010.8;1;0;268.8;1.2774;2.7671;7460.223;1;164.9744;1;NaN;NaN;NaN;NaN;NaN;NaN;NaN;NaN;0;-13.7072672234386;0.134041485833289;1
327;HYDAT;STURGEON CREEK NEAR LEAMINGTON;02GH001;42.04556;-82.57472;14.2;NaN;0;1;180.8;0.2727;NaN;NaN;0;125.3491;1;0;0;0;0;0;0;1;0;1;NaN;NaN;0
328;HYDAT;CANARD RIVER NEAR LUKERVILLE;02GH003;42.15897;-83.01889;159;124.1626;1;0;185;0.2807;1.466;57.418;1;233.8031;1;0.0358;0.0057;0.0222;0.0049;0.0883;0.0013;0.842;0;1;-11.8000001907349;0.059999998658895;1
329;HYDAT;TURKEY CREEK AT WINDSOR;02GH004;42.2605;-83.03983;29.6;NaN;0;1;183.1;0.3462;NaN;NaN;0;229.399;1;0;0;0;0;1;0;0;0;1;NaN;NaN;0
330;HYDAT;LITTLE RIVER AT WINDSOR;02GH011;42.30986;-82.9285;55.2569;NaN;0;0;185.2;0.2123;1.6419;43.678;1;42.4926;1;0.0136;0.0153;0.0549;0.0011;0.3785;0.0003;0.5362;0;1;-11.8000001907349;0.059999998658895;1
331;HYDAT;FIFTH CONCESSION DRAIN NEAR ESSEX (TEST);02GH013;42.205;-82.78667;3.9;NaN;0;1;188.5;0.1837;NaN;NaN;0;10.2424;1;0;0;0;0;0;0;1;0;1;-11.8000001907349;0.059999998658895;1
332;HYDAT;SECOND CONCESSION DRAIN NEAR ESSEX (CONTROL);02GH014;42.19361;-82.73722;3.19;NaN;0;1;188.2;0.1564;NaN;NaN;0;16.5188;1;0;0;0;0;0;0;1;0;1;NaN;NaN;0
333;HYDAT;DETROIT RIVER AT FORT WAYNE;02GH015;42.29806;-83.09278;592589;626716.8;1;0;267.7;1.2555;2.7174;7434.399;1;165.9538;1;NaN;NaN;NaN;NaN;NaN;NaN;NaN;NaN;0;-13.7125607980854;0.133180855511951;1
334;HYDAT;TURKEY CREEK AT SOUTH WINDSOR;02GH016;42.26408;-83.03242;14.6;NaN;0;1;184.2;0.2801;NaN;NaN;0;231.2399;1;0;0;0;0;1;0;0;0;1;NaN;NaN;0
335;HYDAT;TWENTY MILE CREEK AT BALLS FALLS;02HA006;43.13347;-79.38325;291.7249;NaN;0;0;201.3;0.5346;2.2818;139.118;1;88.6769;1;0.0998;0.0189;0.0006;0.0017;0.0817;0.0013;0.7961;0;1;-15.1999998092651;0.189999997615814;1
336;HYDAT;REDHILL CREEK AT HAMILTON;02HA014;43.24097;-79.77389;51.67;NaN;0;0;190.7;1.2832;1.5927;40.861;1;26.0025;1;0.1021;0.0775;0.0042;0;0.6535;0.0164;0.1462;0;1;-15.2582087730294;0.186865669244261;1
337;HYDAT;WELLAND RIVER NEAR MOUNT HOPE;02HA015;43.17056;-79.9475;2.08;NaN;0;1;229.2;0.8258;NaN;NaN;0;208.0445;1;0;0.2632;0;0;0;0;0.7368;0;1;NaN;NaN;0
338;HYDAT;THREE MILE CREEK AT MOUNT HOPE;02HA016;43.16611;-79.90944;4.38;NaN;0;1;229.9;0.5589;NaN;NaN;0;62.0545;1;0;0;0;0;0;0;1;0;1;NaN;NaN;0
339;HYDAT;TWENTY MILE CREEK ABOVE SMITHVILLE;02HA020;43.11564;-79.56619;166.1379;NaN;0;0;209.5;0.4798;2.1496;98.901;1;89.6172;1;0.0721;0.0182;0.0001;0.0006;0.0807;0.0008;0.8275;0;1;-15.1999998092651;0.189999997615814;1
340;HYDAT;STONEY CREEK AT STONEY CREEK;02HA022;43.22553;-79.75117;20;NaN;0;1;106.1;1.6609;NaN;NaN;0;359.6555;1;0;0;0;1;0;0;0;0;1;NaN;NaN;0
341;HYDAT;REDHILL CREEK AT ALBION FALLS;02HA023;43.20047;-79.82047;23.5;NaN;0;1;187.9;1.4707;NaN;NaN;0;26.6306;1;0;0;0;0;1;0;0;0;1;NaN;NaN;0
342;HYDAT;WALKER CREEK AT ST. CATHARINES;02HA027;43.21583;-79.22833;5.25;NaN;0;1;82.4;0.5525;NaN;NaN;0;323.1465;1;0.1429;0;0;0;0.8571;0;0;0;1;NaN;NaN;0
343;HYDAT;FOUR MILE CREEK NEAR VIRGIL;02HA030;43.19561;-79.11333;13.4939;NaN;0;0;130.1;1.5504;1.7506;22.957;1;352.0033;1;0.1316;0.1399;0.0174;0.0085;0.2809;0.0057;0.4159;0;1;-15.7352940054501;0.161176468081334;1
344;HYDAT;TWELVE MILE CREEK NEAR POWER GLEN;02HA031;43.11478;-79.27456;47.4408;NaN;0;0;173;1.7152;1.4187;34.888;1;352.8057;1;0.3482;0.012;0.0003;0;0.1027;0.0013;0.5354;0;1;-15.1999998092651;0.189999997615814;1
345;HYDAT;NORTH CREEK NEAR SMITHVILLE;02HA032;43.07453;-79.525;36.6;NaN;0;1;188.8;0.5931;NaN;NaN;0;92.3844;1;0;0;0;0;0.1053;0;0.8947;0;1;NaN;NaN;0
346;HYDAT;EAST SIXTEEN MILE CREEK NEAR OMAGH;02HB004;43.49917;-79.77678;192.9951;NaN;0;0;233.5;0.9625;1.5953;79.018;1;111.1303;1;0.1407;0.0283;0.0018;0.0027;0.1737;0.0011;0.6516;0;1;-16.3437984266946;0.128410850066778;1
347;HYDAT;GRINDSTONE CREEK NEAR ALDERSHOT;02HB012;43.30064;-79.869;77.9414;NaN;0;0;248;1.1298;2.2479;70.798;1;152.2702;1;0.272;0.0234;0.0051;0.0043;0.1366;0.0045;0.5541;0;1;-15.4009089296514;0.179181815751574;1
348;HYDAT;ANCASTER CREEK AT ANCASTER;02HB021;43.23117;-79.97386;7.431;NaN;0;0;245.2;0.9687;1.6035;15.605;1;30.2314;1;0.1712;0.0116;0.0017;0;0.5078;0.0024;0.3052;0;1;-15.1999998092651;0.189999997615814;1
349;HYDAT;BRONTE CREEK AT CARLISLE;02HB022;43.38886;-79.98811;123.4232;NaN;0;0;300;1.0934;2.1683;85.914;1;131.9422;1;0.34;0.0084;0.0071;0.02;0.0804;0.0049;0.5391;0;1;-15.1999998092651;0.189999997615814;1
350;HYDAT;SPENCER CREEK AT HIGHWAY NO. 5;02HB023;43.28292;-80.05281;126.1917;NaN;0;0;269;0.8598;2.2515;90.228;1;156.3425;1;0.3178;0.0141;0.0136;0.0089;0.0763;0.0148;0.5546;0;1;-15.1999998092651;0.189999997615814;1
351;HYDAT;FOURTEEN MILE CREEK AT OAKVILLE;02HB027;43.42145;-79.70315;24.4488;NaN;0;0;148.1;0.9045;1.5891;28.026;1;116.3059;1;0.1216;0.0883;0.0054;0;0.4312;0.0051;0.3483;0;1;-16.5;0.119999997317791;1
352;HYDAT;GRINDSTONE CREEK NEAR MILLGROVE;02HB028;43.33486;-79.94906;36.8418;NaN;0;0;259.3;0.8723;1.5992;34.631;1;155.9474;1;0.2357;0.0084;0.0062;0.0061;0.106;0.0058;0.6319;0;1;-15.1999998092651;0.189999997615814;1
353;HYDAT;CREDIT RIVER AT STREETSVILLE;02HB029;43.58228;-79.70875;774.2404;NaN;0;0;357.7;1.5991;2.3784;235.828;1;110.6498;1;0.2897;0.0366;0.0058;0.0104;0.1753;0.0025;0.4799;0;1;-15.6965875598492;0.163260661009081;1
354;HYDAT;COOKSVILLE CREEK NEAR COOKSVILLE;02HB030;43.59233;-79.62389;19.6823;NaN;0;0;170.8;1.0206;1.5755;24.921;1;114.6569;1;0.0138;0.064;0.0011;0;0.8894;0;0.0318;0;1;-16.5;0.119999997317791;1
355;HYDAT;CREDIT RIVER ERIN BRANCH AT HILLSBURGH;02HB031;43.79025;-80.14344;12.4605;NaN;0;0;468.6;2.0021;1.6602;20.885;1;110.8427;1;0.1784;0.0355;0.002;0.0066;0.0974;0.0002;0.6799;0;1;-15.1999998092651;0.189999997615814;1
356;HYDAT;HUMBER RIVER ABOVE EAST HUMBER RIVER;02HC007;43.79167;-79.595;300;320.2915;1;0;313.1;1.8485;2.1198;114.312;1;69.839;1;0.3739;0.0161;0.0045;0.0095;0.1303;0.0038;0.4618;0;1;-16.2708332997102;0.132339740960071;1
357;HYDAT;EAST HUMBER RIVER NEAR PINE GROVE;02HC009;43.79008;-79.58442;190.912;NaN;0;0;273.2;1.5646;1.9537;96.159;1;176.9661;1;0.2392;0.0383;0.0072;0.0137;0.1871;0.0034;0.511;0;1;-15.9717054477958;0.113255811422024;1
358;HYDAT;HUMBER RIVER AT WOODBRIDGE;02HC011;43.78528;-79.59028;495;517.2878;1;0;281.8;1.6993;1.9428;162.074;1;123.1997;1;0.2816;0.03;0.0057;0.0102;0.183;0.0033;0.4862;0;1;-16.2009433903141;0.122601075564835;1
359;HYDAT;HIGHLAND CREEK NEAR WEST HILL;02HC013;43.77819;-79.19147;89.0606;NaN;0;0;170.6;0.882;1.5492;52.097;1;111.0378;1;0.0446;0.0958;0.0051;0.0003;0.8532;0.0004;0.0004;0;1;-16.5;0.119999997317791;1
360;HYDAT;LYNDE CREEK NEAR WHITBY;02HC018;43.8755;-78.96033;100.2726;NaN;0;0;213.6;1.529;1.8928;67.506;1;151.3659;1;0.1813;0.0268;0.004;0.0028;0.1718;0.0108;0.6024;0;1;-16.5;0.119999997317791;1
361;HYDAT;DUFFINS CREEK ABOVE PICKERING;02HC019;43.89128;-79.05928;86.9627;NaN;0;0;248.9;2.1625;1.6607;55.158;1;140.3801;1;0.3406;0.0104;0.0017;0.0017;0.0686;0.0066;0.5704;0;1;-16.5;0.119999997317791;1
362;HYDAT;HUMBER RIVER AT ELDER MILLS;02HC025;43.81131;-79.62758;296.2775;NaN;0;0;312.4;1.9855;2.2354;137.057;1;88.0305;1;0.3663;0.0088;0.004;0.0102;0.1017;0.0028;0.5061;0;1;-16.3156716147465;0.129925370494376;1
363;HYDAT;LITTLE ROUGE CREEK NEAR LOCUST HILL;02HC028;43.90789;-79.21628;83.5752;NaN;0;0;255.5;1.1045;1.5008;48.868;1;159.1269;1;0.0697;0.0318;0.0019;0.0038;0.1381;0.0055;0.7492;0;1;-16.5;0.119999997317791;1
364;HYDAT;ETOBICOKE CREEK BELOW QUEEN ELIZABETH HIGHWAY;02HC030;43.60175;-79.55633;204.992;NaN;0;0;212.4;0.7733;2.2743;116.058;1;106.0452;1;0.0407;0.0819;0.0092;0.0031;0.6251;0.0007;0.2391;0;1;-16.5;0.119999997317791;1
365;HYDAT;WEST HUMBER RIVER AT HIGHWAY NO. 7;02HC031;43.75836;-79.67894;142.1761;NaN;0;0;253.8;0.7639;1.6392;69.641;1;93.1355;1;0.07;0.0328;0.0048;0.001;0.1894;0.0018;0.7001;0;1;-16.5;0.119999997317791;1
366;HYDAT;MIMICO CREEK AT ISLINGTON;02HC033;43.64736;-79.51969;67.7659;NaN;0;0;176.5;0.7392;2.3029;67.566;1;91.7367;1;0.0152;0.1013;0.0073;0.0037;0.8605;0.0007;0.0112;0;1;-16.5;0.119999997317791;1
367;HYDAT;KATABOKOKONK CREEK ABOVE LOCUST HILL;02HC036;43.91861;-79.22611;3.63;NaN;0;1;213.7;1.1299;NaN;NaN;0;170.2018;1;0;0;0;0;0;0;1;0;1;NaN;NaN;0
368;HYDAT;MAJOR CREEK ABOVE GREEN RIVER;02HC037;43.90556;-79.19083;4.92;NaN;0;1;197.5;1.1816;NaN;NaN;0;90.22;1;0;0;0;0;0;0;1;0;1;NaN;NaN;0
369;HYDAT;WEST DUFFINS CREEK ABOVE GREEN RIVER;02HC038;43.91575;-79.17953;61.8159;NaN;0;0;287.9;1.4168;1.916;53.651;1;177.0906;1;0.253;0.0292;0.0006;0.0153;0.062;0.018;0.6219;0;1;-16.5;0.119999997317791;1
370;HYDAT;REESOR CREEK NEAR ALTONA;02HC040;43.95444;-79.20778;15;NaN;0;1;248.6;1.0068;NaN;NaN;0;143.6487;1;0;0;0;0;0.3684;0;0.6316;0;1;NaN;NaN;0
371;HYDAT;URFE CREEK NEAR BROUGHAM;02HC043;43.91694;-79.11389;2.85;NaN;0;1;204.6;1.2146;NaN;NaN;0;120.2808;1;0;0;0;0;0;0;1;0;1;NaN;NaN;0
372;HYDAT;BROUGHAM CREEK AT BROUGHAM;02HC044;43.91583;-79.10639;3.63;NaN;0;1;194.5;1.5178;NaN;NaN;0;107.6409;1;0;0;0;0;0;0;1;0;1;NaN;NaN;0
373;HYDAT;MICHELL CREEK BELOW CLAREMONT;02HC045;43.96111;-79.12806;25.9;NaN;0;1;247.3;1.452;NaN;NaN;0;132.9485;1;0.2143;0;0;0;0;0;0.7857;0;1;NaN;NaN;0
374;HYDAT;WIXON CREEK BELOW ALTONA;02HC046;43.96;-79.1825;10.6;NaN;0;1;246.6;0.9416;NaN;NaN;0;154.8521;1;0;0;0;0;0.15;0;0.85;0;1;NaN;NaN;0
375;HYDAT;HUMBER RIVER NEAR PALGRAVE;02HC047;43.9285;-79.823;163.5421;NaN;0;0;354.1;2.0169;1.9323;88.02;1;62.6495;1;0.443;0.0044;0.0037;0.0114;0.0791;0.0041;0.4543;0;1;-16.1585252955213;0.138387094170267;1
376;HYDAT;DUFFINS CREEK AT AJAX;02HC049;43.84889;-79.05611;257.4638;NaN;0;0;241.9;1.6622;1.59;90.869;1;148.7379;1;0.255;0.0265;0.0029;0.0053;0.1158;0.0129;0.5817;0;1;-16.5;0.119999997317791;1
377;HYDAT;CENTREVILLE CREEK NEAR ALBION;02HC051;43.92444;-79.83444;42;NaN;0;1;290.1;2.0097;NaN;NaN;0;83.7443;1;0.1818;0;0;0;0;0;0.8182;0;1;NaN;NaN;0
378;HYDAT;LITTLE ROUGE RIVER NEAR DICKSONS HILL;02HC053;43.92569;-79.28219;58.9946;NaN;0;0;268.5;1.1477;1.3576;37.139;1;157.2628;1;0.0837;0.0402;0.0023;0.0054;0.1397;0.0068;0.7219;0;1;-16.5;0.119999997317791;1
379;HYDAT;LYNDE CREEK AT BROOKLIN;02HC054;43.95908;-78.95997;39.0087;NaN;0;0;265;1.7615;2.0695;46.032;1;147.7957;1;0.1798;0.016;0.0028;0.0064;0.1112;0.007;0.6768;0;1;-16.5;0.119999997317791;1
380;HYDAT;LYNDE CREEK TRIBUTARY NEAR KINSALE;02HC055;43.93197;-78.98847;37.5807;NaN;0;0;211.2;1.6013;1.5157;33.095;1;141.6343;1;0.1551;0.0174;0.0003;0;0.0831;0.0066;0.7375;0;1;-16.5;0.119999997317791;1
381;HYDAT;DON RIVER EAST BRANCH NEAR THORNHILL;02HC056;43.82661;-79.43808;37.3102;NaN;0;0;242.5;1.7125;1.4686;31.96;1;137.1472;1;0.1917;0.0862;0.0195;0.0046;0.541;0.0017;0.1553;0;1;-16.5;0.119999997317791;1
382;HYDAT;WEST HIGHLAND CREEK NEAR SCARBOROUGH VILLAGE;02HC058;43.75322;-79.23367;39.262;NaN;0;0;173.8;0.7496;2.0194;45.091;1;126.4855;1;0.0192;0.0977;0.0039;0.0004;0.8779;0;0.001;0;1;-16.5;0.119999997317791;1
383;HYDAT;WEST DUFFINS CREEK NEAR PICKERING;02HC106;43.85;-79.08667;136;130.333;1;0;254.5;1.3092;2.2536;72.139;1;136.5966;1;0.2044;0.0279;0.0037;0.0088;0.1516;0.011;0.5926;0;1;-16.5;0.119999997317791;1
384;HYDAT;GANATSEKIAGON CREEK NEAR PICKERING;02HC114;43.85972;-79.08611;13.5;NaN;0;1;107.6;1.7653;NaN;NaN;0;112.7315;1;0.1;0.05;0;0;0.35;0.35;0.15;0;1;NaN;NaN;0
385;HYDAT;GANARASKA RIVER AT PORT HOPE;02HD001;43.96833;-78.29528;267;270.9188;1;0;215.2;2.3533;1.7993;100.919;1;139.7989;1;0.4429;0.013;0.0015;0.003;0.0655;0.016;0.4582;0;1;-11.8000001907349;0.059999998658895;1
386;HYDAT;GANARASKA RIVER NEAR DALE;02HD002;43.98528;-78.30167;262;266.3849;1;0;215.2;2.3533;1.7993;100.919;1;139.7989;1;0.4429;0.013;0.0015;0.003;0.0655;0.016;0.4582;0;1;-11.8000001907349;0.059999998658895;1
387;HYDAT;BOWMANVILLE CREEK AT BOWMANVILLE;02HD006;43.92147;-78.702;80.9395;NaN;0;0;244.4;1.9701;1.811;58.022;1;152.0541;1;0.2781;0.0163;0.0019;0.0012;0.0842;0.0185;0.5998;0;1;-16.4168141626679;0.118938050438872;1
388;HYDAT;OSHAWA CREEK AT OSHAWA;02HD008;43.93031;-78.89153;95.7891;NaN;0;0;231.1;1.6259;1.4964;52.158;1;171.4153;1;0.1358;0.0202;0.002;0.0015;0.12;0.0098;0.7108;0;1;-16.5;0.119999997317791;1
389;HYDAT;WILMOT CREEK NEAR NEWCASTLE;02HD009;43.93022;-78.61881;80.7408;NaN;0;0;228.3;2.092;1.7712;56.679;1;179.2695;1;0.2342;0.0239;0.001;0.0007;0.0919;0.0191;0.6293;0;1;-12.0563638166948;0.063272725858472;1
390;HYDAT;GANARASKA RIVER ABOVE DALE;02HD012;43.99094;-78.32819;241.8748;NaN;0;0;225.5;2.4478;1.8257;101.107;1;144.9865;1;0.4656;0.0122;0.0014;0.0018;0.0511;0.017;0.4509;0;1;-11.8000001907349;0.059999998658895;1
391;HYDAT;HARMONY CREEK AT OSHAWA;02HD013;43.88886;-78.82494;42.9;NaN;0;1;102.7;1.1463;NaN;NaN;0;150.2132;1;0;0;0;0;1;0;0;0;1;NaN;NaN;0
392;HYDAT;PROCTORS CREEK NEAR BRIGHTON;02HD018;44.05981;-77.74447;16.7588;NaN;0;0;208.9;2.7719;1.7062;24.874;1;138.7222;1;0.3256;0.0088;0.0019;0.0019;0.0879;0.0165;0.5573;0;1;-11.8000001907349;0.059999998658895;1
393;HYDAT;COBOURG BROOK AT COBOURG;02HD019;43.96487;-78.18481;122.0895;NaN;0;0;221.2;3.0704;1.58;62.166;1;180.8997;1;0.3681;0.0231;0.0007;0.0007;0.0894;0.0244;0.4937;0;1;-11.8000001907349;0.059999998658895;1
394;HYDAT;BALTIMORE CREEK AT BALTIMORE;02HD020;44.02883;-78.14706;40.6;NaN;0;1;191.6;3.1584;NaN;NaN;0;203.8323;1;1;0;0;0;0;0;0;0;1;NaN;NaN;0
395;HYDAT;WILMOT CREEK NEAR LESKARD;02HD021;44.00572;-78.64233;25.0776;NaN;0;0;301.9;2.4562;1.7032;30.374;1;167.6114;1;0.3833;0.0633;0.0022;0.0005;0.0903;0.0493;0.4111;0;1;-11.8000001907349;0.059999998658895;1
396;HYDAT;COBOURG BROOK NEAR PRECIOUS CORNERS;02HD022;43.98843;-78.21065;33.6013;NaN;0;0;198;3.5732;1.6081;33.196;1;169.9547;1;0.17;0.0169;0;0.0016;0.0687;0.0124;0.7305;0;1;-11.8000001907349;0.059999998658895;1
397;HYDAT;MACKIE CREEK NEAR HAMPTON;02HD023;43.97908;-78.68031;14.7353;NaN;0;0;234.2;2.037;1.9976;27.311;1;163.9155;1;0.161;0.0014;0.0012;0;0.0791;0.0072;0.7501;0;1;-15.7578947669581;0.110526313319018;1
398;HYDAT;GAGE CREEK NEAR DALE;02HD024;43.99703;-78.25433;21;NaN;0;1;123.1;2.0906;NaN;NaN;0;197.0704;1;0.9;0;0;0;0;0;0.1;0;1;NaN;NaN;0
399;HYDAT;BLOOMFIELD CREEK AT BLOOMFIELD;02HE001;43.99056;-77.21833;13.9;NaN;0;1;87.8;0.6526;NaN;NaN;0;176.1549;1;0.4667;0;0;0;0;0;0.5333;0;1;NaN;NaN;0
400;HYDAT;DEMORESTVILLE CREEK AT DEMORESTVILLE;02HE003;44.09056;-77.21056;29.3;NaN;0;1;99.6;0.7837;NaN;NaN;0;262.2255;1;0;0;0;0;0;0;1;0;1;NaN;NaN;0
401;HYDAT;BLACK CREEK AT MILFORD;02HE004;43.93536;-77.09021;36.8166;NaN;0;0;112.6;0.5917;2.1851;47.226;1;135.7437;1;0.2704;0.0323;0.0116;0.0034;0.0537;0.1587;0.4699;0;1;-11.8000001907349;0.059999998658895;1
402;HYDAT;BOB CREEK NEAR MINDEN;02HF004;44.93528;-78.76861;21.8;NaN;0;1;330.5;2.816;NaN;NaN;0;94.7402;1;0.6;0.4;0;0;0;0;0;0;1;NaN;NaN;0
403;HYDAT;MARIPOSA BROOK NEAR LITTLE BRITAIN;02HG001;44.28964;-78.84161;189;171.427;1;0;273;0.7733;1.5247;82.016;1;115.4984;1;0.1762;0.01;0.0058;0.0037;0.048;0.0121;0.7442;0;1;-11.8150642926876;0.060192306346905;1
404;HYDAT;BLACKSTOCK CREEK NEAR BLACKSTOCK;02HG003;44.13192;-78.82897;33.7967;NaN;0;0;299;1.304;1.8841;39;1;306.2496;1;0.2297;0.0068;0.0044;0;0.0667;0.0121;0.6803;0;1;-14.293877640549;0.091836732641167;1
405;HYDAT;PIGEON RIVER NEAR LOTUS;02HH003;44.12428;-78.69511;26.2972;NaN;0;0;330.4;2.3021;1.8395;33.589;1;351.9668;1;0.5584;0.0482;0.0035;0.0016;0.0579;0.0525;0.2778;0;1;-11.8000001907349;0.059999998658895;1
406;HYDAT;JACKSON CREEK AT PETERBOROUGH;02HJ001;44.30278;-78.32139;116.1541;NaN;0;0;269.4;2.1683;2.1631;82.964;1;110.3853;1;0.2472;0.0215;0.022;0.0011;0.1091;0.0108;0.5884;0;1;-11.8000001907349;0.059999998658895;1
407;HYDAT;SQUIRREL CREEK NEAR BAILIEBORO;02HJ005;44.12325;-78.38867;11.5682;NaN;0;0;242.3;2.5937;1.4096;17.073;1;35.0847;1;0.3085;0;0;0.0027;0.0567;0.0056;0.6264;0;1;-11.8000001907349;0.059999998658895;1
408;HYDAT;JACKSON CREEK NEAR JACKSON HEIGHTS;02HJ006;44.30983;-78.37072;106.9333;NaN;0;0;271.8;2.1501;2.0377;74.99;1;109.7791;1;0.2581;0.0178;0.0226;0.0011;0.0615;0.0096;0.6292;0;1;-11.8000001907349;0.059999998658895;1
409;HYDAT;BAXTER CREEK AT MILLBROOK;02HJ007;44.15028;-78.44672;45.4984;NaN;0;0;299.6;2.4392;1.7265;41.464;1;33.839;1;0.5293;0.0062;0.0003;0.0024;0.0448;0.0157;0.4013;0;1;-11.8000001907349;0.059999998658895;1
410;HYDAT;COLD CREEK AT ORLAND;02HK007;44.13475;-77.78703;160.5198;NaN;0;0;195.3;2.4912;1.8012;81.252;1;95.7064;1;0.3916;0.0077;0.0047;0.0044;0.0594;0.0171;0.5151;0;1;-11.8000001907349;0.059999998658895;1
411;HYDAT;RAWDON CREEK NEAR WEST HUNTINGDON;02HK008;44.33834;-77.47731;93.0041;NaN;0;0;179.6;1.4175;2.1517;73.824;1;155.6788;1;0.6073;0.0179;0.0397;0.0118;0.0405;0.0528;0.23;0;1;-11.8000001907349;0.059999998658895;1
412;HYDAT;SALT CREEK NEAR CODRINGTON;02HK015;44.19945;-77.81904;79.0659;NaN;0;0;188.1;2.7362;1.8152;57.459;1;22.5778;1;0.3594;0.0106;0.0018;0.0006;0.0528;0.0163;0.5585;0;1;-11.8000001907349;0.059999998658895;1
413;HYDAT;TROUT CREEK NEAR CAMPBELLFORD;02HK016;44.30185;-77.83106;35.1747;NaN;0;0;205.3;2.7267;1.815;38.309;1;81.7017;1;0.2098;0.0146;0.0136;0;0.0366;0.0182;0.7071;0;1;-11.8000001907349;0.059999998658895;1
414;HYDAT;HOARDS CREEK NEAR WELLMAN;02HK017;44.33176;-77.62841;117.7134;NaN;0;0;171.3;1.1235;2.3007;88.808;1;145.0699;1;0.4073;0.0273;0.0071;0.0017;0.0437;0.0596;0.4533;0;1;-11.8000001907349;0.059999998658895;1
415;HYDAT;BLACK RIVER NEAR ACTINOLITE;02HL003;44.5396;-77.36965;428.6556;NaN;0;0;280.1;1.5212;2.4159;177.812;1;149.4625;1;0.8257;0.0134;0.0252;0.0748;0.0109;0.0147;0.0353;0;1;-13.4070948169038;0.046283785203421;1
416;HYDAT;SKOOTAMATTA RIVER NEAR ACTINOLITE;02HL004;44.54957;-77.32813;677.6489;NaN;0;0;280.2;1.4869;2.4466;226.396;1;145.2109;1;0.811;0.019;0.0269;0.0923;0.0142;0.0261;0.0104;0;1;-13.6406252723316;0.042015087429498;1
417;HYDAT;MOIRA RIVER NEAR DELORO;02HL005;44.49973;-77.61836;296.8935;NaN;0;0;277.4;1.4157;2.7436;168.079;1;144.6293;1;0.8146;0.0123;0.0244;0.0425;0.0225;0.0153;0.0683;0;1;-13.3242576381948;0.070841586475473;1
418;HYDAT;PARKS CREEK NEAR LATTA;02HL006;44.28528;-77.32361;205;199.4263;1;0;157;1.1767;1.6924;85.955;1;172.7306;1;0.7336;0.0081;0.0272;0.012;0.0331;0.0591;0.127;0;1;-11.8243818181985;0.059469963335054;1
419;HYDAT;CLARE RIVER NEAR BOGART;02HL008;44.49681;-77.22749;312.6298;NaN;0;0;184.3;1.4288;2.6564;167.042;1;190.0131;1;0.7425;0.0262;0.0361;0.0584;0.025;0.0661;0.0457;0;1;-12.9113166381801;0.073810624733017;1
420;HYDAT;CLARE RIVER NEAR BOGART;02HL102;44.4825;-77.21944;160;162.7884;1;0;178.5;1.3245;1.8316;86.79;1;231.3461;1;0.7129;0.0247;0.0386;0.0529;0.0254;0.0708;0.0747;0;1;-12.5757324705563;0.045020919636079;1
421;HYDAT;PARKS CREEK NEAR LATTA;02HL103;44.28472;-77.325;199;199.7321;1;0;157;1.1767;1.6924;85.955;1;172.7306;1;0.7336;0.0081;0.0272;0.012;0.0331;0.0591;0.127;0;1;-11.8243818181985;0.059469963335054;1
422;HYDAT;WILTON CREEK NEAR NAPANEE;02HM004;44.23943;-76.84922;105.1981;NaN;0;0;143.3;1.3593;2.4807;90.534;1;154.2208;1;0.3755;0.0708;0.0094;0.0031;0.0614;0.1108;0.369;0;1;-11.8155407325642;0.059662160828609;1
423;HYDAT;COLLINS CREEK NEAR KINGSTON;02HM005;44.25656;-76.61256;160.1304;NaN;0;0;126.3;1.3439;2.3862;107.448;1;153.9577;1;0.4367;0.1254;0.0154;0.0319;0.076;0.1012;0.2135;0;1;-11.9606336533214;0.071945700356189;1
424;HYDAT;WEST BRANCH LITTLE CATARAQUI CREEK AT KINGSTON;02HM009;44.24103;-76.57892;6.89;NaN;0;0;105.4;0.9103;1.6458;15.38;1;141.7991;1;0.0798;0.0956;0.0065;0;0.7951;0.0213;0.0016;0;1;-11.8000001907349;0.059999998658895;1
425;HYDAT;MILLHAVEN CREEK AT SYDENHAM;02HM011;44.41339;-76.59523;57.7654;NaN;0;0;150.4;1.8679;1.9699;53.262;1;158.155;1;0.5421;0.0511;0.0179;0.1946;0.0547;0.0167;0.1229;0;1;-12.9573173174044;0.073292684150723;1
426;HYDAT;KINOJEVIS (RIVIERE) EN AVAL DE LA RIVIERE VILLEMONTEL;02JB003;48.45583;-78.36111;1680;1656.244;1;0;315.9;1.2822;1.8931;283.568;1;182.7532;1;0.7867;0.0077;0.0449;0.0883;0.0129;0.0182;0.0412;0;1;-13.0452076771574;0.063690568357003;1
427;HYDAT;KINOJEVIS (RIVIERE) EN AVAL DU LAC PREISSAC;02JB004;48.40556;-78.36417;984;979.8334;1;0;315.9;1.394;2.027;224.32;1;230.5677;1;0.7612;0.0078;0.0312;0.1532;0.0144;0.0187;0.0134;0;1;-13.4435899685591;0.044566875971642;1
428;HYDAT;KINOJEVIS (RIVIERE) A 0,3 KM EN AMONT DU PONT-ROUTE A CLERICY;02JB013;48.36667;-78.85333;2590;2510.277;1;0;315.9;1.5892;2.0059;357.686;1;175.8566;1;0.8034;0.0068;0.0366;0.0762;0.0117;0.0182;0.0472;0;1;-12.9592751628046;0.068043712546914;1
429;HYDAT;BLANCHE RIVER ABOVE ENGLEHART;02JC008;47.88914;-79.87931;1782.2507;NaN;0;0;312.4;2.0879;2.1646;322.758;1;138.3425;1;0.8571;0.013;0.0142;0.0549;0.0166;0.026;0.0182;0;1;-13.2319525545659;0.082067512932452;1
430;HYDAT;BLANCHE RIVER AT SWASTIKA;02JC009;48.10861;-80.10583;251;243.3486;1;0;330.2;2.0781;3.2226;135.135;1;106.619;1;0.7909;0.0107;0.0071;0.1502;0.0162;0.0248;0;0;1;-13.4849514035345;0.129611652190752;1
431;HYDAT;MATTAWA RIVER NEAR RUTHERGLEN;02JE014;46.30123;-78.8786;2040;2104.785;1;0;331;3.7463;2.2226;366.808;1;261.1435;1;0.814;0.0048;0.0133;0.0992;0.0357;0.0043;0.0287;0;1;-14.1000003814697;0.009999999776483;1
432;HYDAT;AMABLE DU FOND RIVER AT KIOSK;02JE027;46.0914;-78.88515;706.1015;NaN;0;0;396.1;3.9669;2.3435;220.754;1;253.9252;1;0.8266;0.0003;0.0169;0.1478;0.0058;0.0026;0;0;1;-14.1000003814697;0.009999999776483;1
433;HYDAT;PERCH LAKE OUTLET NEAR CHALK RIVER;02KA003;46.03556;-77.37083;7.3;NaN;0;1;174.8;3.0396;NaN;NaN;0;309.8758;1;0;0;0;1;0;0;0;0;1;NaN;NaN;0
434;HYDAT;PERCH LAKE INLET NO. 2 NEAR CHALK RIVER;02KA005;46.03667;-77.37556;3.6;NaN;0;1;171.5;2.8089;NaN;NaN;0;171.1434;1;1;0;0;0;0;0;0;0;1;NaN;NaN;0
435;HYDAT;TRIBUTARY TO PERCH LAKE INLET NO. 2 NEAR CHALK RIVER;02KA009;46.04222;-77.38222;2.88;NaN;0;1;171.6;2.066;NaN;NaN;0;155.501;1;1;0;0;0;0;0;0;0;1;NaN;NaN;0
436;HYDAT;AUMOND CREEK NEAR MATTAWA;02KA015;46.27614;-78.47875;167.4327;NaN;0;0;337.1;2.3348;2.1942;100.608;1;352.2282;1;0.8626;0.0057;0.026;0.0258;0.0755;0.0044;0;0;1;-14.1000003814697;0.009999999776483;1
437;HYDAT;INDIAN RIVER NEAR PEMBROKE;02KC014;45.78528;-77.13833;443;473.7473;1;0;222.4;3.3826;1.8861;149.642;1;46.5546;1;0.8106;0.003;0.0082;0.0417;0.0475;0.0041;0.085;0;1;-14.0701302491225;0.010649350411319;1
438;HYDAT;INDIAN RIVER AT PEMBROKE;02KC018;45.81828;-77.12511;465;493.713;1;0;222.4;3.3826;1.8861;149.642;1;46.5546;1;0.8106;0.003;0.0082;0.0417;0.0475;0.0041;0.085;0;1;-14.0701302491225;0.010649350411319;1
439;HYDAT;YORK RIVER NEAR BANCROFT;02KD002;45.05214;-77.84603;844.4854;NaN;0;0;431;4.4863;2.7533;284.125;1;138.5304;1;0.8533;0.0083;0.007;0.0887;0.0297;0.0065;0.0065;0;1;-13.8385269914412;0.050355632302874;1
440;HYDAT;CARP RIVER NEAR KINBURN;02KF011;45.41758;-76.19867;258.4778;NaN;0;0;118.9;0.9422;2.0458;116.767;1;11.9416;1;0.3882;0.0563;0.0173;0.004;0.1618;0.0278;0.3445;0;1;-11.8333335240682;0.061277776563333;1
441;HYDAT;GRAHAM CREEK AT NEPEAN;02KF015;45.34358;-75.80808;21.9726;NaN;0;0;92.2;0.7941;1.7966;29.9;1;2.6689;1;0.2374;0.0681;0.0163;0.0063;0.3807;0.0236;0.2676;0;1;-11.8000001907349;0.059999998658895;1
442;HYDAT;MISSISSIPPI RIVER BELOW MARBLE LAKE;02KF016;44.84317;-77.12006;358.9886;NaN;0;0;332.3;3.3685;2.541;171.054;1;150.7528;1;0.8371;0.006;0.0195;0.1072;0.0198;0.0082;0.0022;0;1;-13.7985975039985;0.045991985291571;1
443;HYDAT;BUCKSHOT CREEK NEAR PLEVNA;02KF017;44.96844;-76.96633;151.6704;NaN;0;0;331.7;2.9787;2.1652;94.731;1;113.162;1;0.8591;0.0039;0.0283;0.078;0.0214;0.007;0.0023;0;1;-13.6663554182677;0.056074768130746;1
444;HYDAT;JOCK RIVER NEAR RICHMOND;02LA007;45.24942;-75.79061;526.086;NaN;0;0;121;0.5638;2.1853;178.014;1;68.0023;1;0.4322;0.0561;0.0322;0.0049;0.0747;0.0794;0.3205;0;1;-11.8000001907349;0.059999998658895;1
445;HYDAT;BLACK RAPIDS CREEK TRIBUTARY AT OTTAWA;02LA008;45.30333;-75.74;1.63;NaN;0;1;87;0.3277;NaN;NaN;0;142.5997;1;0;0;0;0;0;0;1;0;1;NaN;NaN;0
446;HYDAT;SAWMILL CREEK AT OTTAWA;02LA013;45.38778;-75.67444;20.4;NaN;0;1;75.3;1.0917;NaN;NaN;0;309.229;1;0;0;0;0;1;0;0;0;1;NaN;NaN;0
447;HYDAT;CASTOR RIVER AT RUSSELL;02LB006;45.2625;-75.34378;438.663;NaN;0;0;84.8;0.5337;2.2142;164.675;1;71.8098;1;0.3361;0.0463;0.0045;0.0042;0.0963;0.0226;0.4901;0;1;-12.3393444311423;0.066885244406638;1
448;HYDAT;SOUTH NATION RIVER AT SPENCERVILLE;02LB007;44.84225;-75.54442;217.395;NaN;0;0;105.1;0.6481;1.8782;98.439;1;64.9524;1;0.5773;0.0364;0.0317;0.0029;0.0421;0.0194;0.2902;0;1;-11.8000001907349;0.059999998658895;1
449;HYDAT;BEAR BROOK NEAR BOURGET;02LB008;45.426;-75.15322;448.167;NaN;0;0;75.3;0.6139;2.5368;190.623;1;126.26;1;0.4117;0.0448;0.0207;0.002;0.0787;0.0427;0.3995;0;1;-15.0877584038933;0.101971380868616;1
450;HYDAT;WEST BRANCH SCOTCH RIVER NEAR ST. ISIDORE DE PRESCOTT;02LB018;45.37533;-74.948;105.4103;NaN;0;0;77.7;0.6223;1.9501;71.082;1;313.8427;1;0.1646;0.0056;0.0007;0.0016;0.0599;0.0073;0.7602;0;1;-11.8000001907349;0.059999998658895;1
451;HYDAT;SOUTH CASTOR RIVER AT KENMORE;02LB020;45.22833;-75.41272;185.0093;NaN;0;0;83.2;0.515;2.2398;108.201;1;70.5937;1;0.3294;0.025;0.0039;0.0011;0.059;0.0212;0.5606;0;1;-11.8000001907349;0.059999998658895;1
452;HYDAT;PAYNE RIVER NEAR BERWICK;02LB022;45.19161;-75.10464;146.0919;NaN;0;0;92.8;0.548;2.2304;95.739;1;239.4411;1;0.2908;0.0097;0.009;0.0015;0.0456;0.032;0.6113;0;1;-11.8000001907349;0.059999998658895;1
453;HYDAT;RIGAUD RIVER NEAR ST. EUGENE;02LB032;45.49142;-74.44181;306.4082;NaN;0;0;76.2;0.7378;2.0597;127.965;1;61.2849;1;0.2464;0.005;0.0057;0.0013;0.0356;0.0141;0.6919;0;1;-12.1967214923832;0.063442621545853;1
454;HYDAT;NORD (RIVIERE DU) A LACHUTE;02LC020;45.66389;-74.32222;1620;1612.884;1;0;324.5;4.9786;1.9084;269.215;1;129.2906;1;0.7494;0.0069;0.0034;0.0576;0.1392;0.0052;0.0383;0;1;-13.9887397127763;0.013790937344481;1
455;HYDAT;SIMON (RIVIERE) A SON EMBOUCHURE;02LC025;45.91333;-74.15194;167;170.0344;1;0;366;6.351;1.909;88.86;1;99.4784;1;0.7906;0.0055;0.0028;0.0626;0.1241;0.0077;0.0067;0;1;-14.1000003814697;0.009999999776483;1
456;HYDAT;SAINT-LOUIS (RUISSEAU) A 0,3 KM DE LA RIVIERE DU DIABLE;02LC043;46.37472;-74.50333;39.9;NaN;0;1;502.2;9.9229;NaN;NaN;0;265.1062;1;0.2105;0;0;0.7895;0;0;0;0;1;NaN;NaN;0
457;HYDAT;PETITE NATION (RIVIERE DE LA) A PORTAGE-DE-LA-NATION;02LD001;45.67111;-75.03556;1990;1922.843;1;0;273;5.0146;2.0438;318.466;1;133.2653;1;0.7958;0.0116;0.0024;0.1066;0.0298;0.006;0.0478;0;1;-13.9553509004881;0.033505535821991;1
458;HYDAT;PETITE NATION (RIVIERE DE LA) PRES DE COTE-SAINT-PIERRE;02LD002;45.8275;-75.07167;1300;1226.206;1;0;289.6;5.3007;2.3298;297.109;1;111.9984;1;0.8045;0.0074;0.002;0.1392;0.0271;0.0039;0.0159;0;1;-14.050579520266;0.018030888145667;1
459;HYDAT;PETITE NATION (RIVIERE DE LA) AU PONT A 1,6 KM EN AMONT DE RIPON;02LD005;45.79167;-75.09139;1330;1257.925;1;0;289.6;5.3007;2.3298;297.109;1;111.9984;1;0.8045;0.0074;0.002;0.1392;0.0271;0.0039;0.0159;0;1;-14.050579520266;0.018030888145667;1
460;HYDAT;GATINEAU (RIVIERE) AUX RAPIDES CEIZUR;02LG005;47.08361;-75.75361;6840;6923.112;1;0;443.2;4.3328;2.4057;704.127;1;140.9094;1;0.873;0.0159;0.0113;0.0799;0.0024;0.0175;0;0;1;-14.1000003814697;0.009999999776483;1
461;HYDAT;PICANOC (RIVIERE) PRES DE WRIGHT;02LH004;46.0775;-76.06944;1290;1216.834;1;0;259.9;4.6956;2.1142;262.226;1;98.4138;1;0.8442;0.0083;0.0054;0.0987;0.0268;0.0036;0.0129;0;1;-13.494721908857;0.023288862598226;1
462;HYDAT;MEACH (RUISSEAU) SUR LE CHEMIN DES PINS;02LH012;45.57083;-75.8875;84.7;83.1465;1;0;259.1;6.321;2.3533;60.681;1;7.7424;1;0.7767;0.0188;0.0036;0.1501;0.0298;0.004;0.0171;0;1;-14.0111114713881;0.024444444829391;1
463;HYDAT;MEACH (RUISSEAU) EN AVAL DU LAC CARMAN;02LH013;45.59861;-75.92;11.9;NaN;0;1;180.4;6.291;NaN;NaN;0;56.42;1;0.3158;0;0;0.1053;0.5789;0;0;0;1;NaN;NaN;0
464;HYDAT;PICANOC (RIVIERE) SUR LE CHEMIN DU CAYAMAN A GRACEFIELD;02LH032;46.07794;-76.06941;1290;1216.834;1;0;259.9;4.6956;2.1142;262.226;1;98.4138;1;0.8442;0.0083;0.0054;0.0987;0.0268;0.0036;0.0129;0;1;-13.494721908857;0.023288862598226;1
465;HYDAT;LYNDHURST CREEK AT LYNDHURST;02MA001;44.54611;-76.12333;271.0438;NaN;0;0;121.4;1.2725;2.2068;129.183;1;99.3935;1;0.519;0.0632;0.0163;0.0633;0.0462;0.0232;0.2688;0;1;-13.5537038051262;0.101111110275188;1
466;HYDAT;LYN CREEK NEAR LYN;02MB006;44.525;-75.80528;106.7168;NaN;0;0;111.5;0.8872;1.7914;65.806;1;103.3977;1;0.5031;0.053;0.0291;0.0128;0.0519;0.0082;0.3419;0;1;-13.4425675740113;0.142905405282068;1
467;HYDAT;BUELLS CREEK AT BROCKVILLE;02MB010;44.58569;-75.69178;52.9048;NaN;0;0;108.1;0.7046;1.9331;49.996;1;111.9893;1;0.4252;0.0572;0.0231;0.0244;0.2136;0.014;0.2425;0;1;-12.3648649679648;0.121216217357967;1
468;HYDAT;RAISIN RIVER NEAR WILLIAMSTOWN;02MC001;45.15542;-74.63803;365.101;NaN;0;0;84.9;0.8057;2.0503;139.138;1;122.6888;1;0.493;0.0071;0.0126;0.002;0.0413;0.0323;0.4118;0;1;-11.8000001907349;0.059999998658895;1
469;HYDAT;SAINT-LAURENT (FLEUVE)(CHENAL BEAUHARNOIS) LAC SAINT FRANCOIS;02MC024;45.3;-73.90833;772000;776742.1;1;0;259.7;1.2595;3.0046;9454.374;1;173.3723;1;NaN;NaN;NaN;NaN;NaN;NaN;NaN;NaN;0;-13.7223912127346;0.12775286464913;1
470;HYDAT;SAINT-LAURENT (FLEUVE)(CHENAL BEAUHARNOIS) - LES CHENAUX;02MC025;45.3;-73.90833;772000;776742.1;1;0;259.7;1.2595;3.0046;9454.374;1;173.3723;1;NaN;NaN;NaN;NaN;NaN;NaN;NaN;NaN;0;-13.7223912127346;0.12775286464913;1
471;HYDAT;RIVIERE BEAUDETTE NEAR GLEN NEVIS;02MC026;45.27336;-74.49383;132.6121;NaN;0;0;79.9;1.0542;2.2974;93.94;1;128.4667;1;0.481;0.0054;0.0141;0.0005;0.046;0.0167;0.4362;0;1;-11.8000001907349;0.059999998658895;1
472;HYDAT;RAISIN RIVER AT BLACK RIVER;02MC027;45.08061;-74.868;126.3849;NaN;0;0;91.8;0.6824;2.2023;87.942;1;143.8824;1;0.4904;0.0066;0.02;0.0007;0.0387;0.0307;0.413;0;1;-11.8000001907349;0.059999998658895;1
473;HYDAT;RIVIERE DELISLE NEAR ALEXANDRIA;02MC028;45.32708;-74.64383;84.5238;NaN;0;0;99.4;0.8815;2.3274;75.969;1;97.4788;1;0.5298;0.0104;0.0099;0.0019;0.0391;0.0561;0.3528;0;1;-11.8000001907349;0.059999998658895;1
474;HYDAT;SOUTH RAISIN RIVER NEAR CORNWALL;02MC030;45.04883;-74.7705;25.8;NaN;0;1;62.4;0.7257;NaN;NaN;0;66.3393;1;0;0;0;0;0;0;1;0;1;NaN;NaN;0
475;HYDAT;RIVIERE DELISLE NEAR GLEN NORMAN;02MC036;45.3175;-74.60139;159.1634;NaN;0;0;91.8;0.8679;2.3414;104.872;1;89.1524;1;0.4394;0.0094;0.034;0.0348;0.0502;0.0415;0.3906;0;1;-11.8000001907349;0.059999998658895;1
476;HYDAT;CROCHE (RIVIERE) A LA CROCHE;02NE007;47.58417;-72.74306;1850;1848.582;1;0;376.8;4.9994;2.2469;341.43;1;148.2587;1;0.9031;0.015;0.0093;0.0489;0.0029;0.0175;0.0033;0;1;-14.1000003814697;0.009999999776483;1
477;HYDAT;CROCHE (RIVIERE) A 2,6 KM EN AVAL DU RUISSEAU CHANGY;02NE011;47.76722;-72.73667;1570;1552.173;1;0;386.9;4.9577;2.1185;297.806;1;147.844;1;0.9046;0.0147;0.0106;0.0488;0.0019;0.0193;0;0;1;-14.1000003814697;0.009999999776483;1
478;HYDAT;MATAWIN (RIVIERE) A SAINT-MICHEL-DES-SAINTS;02NF003;46.68583;-73.91417;1390;1406.073;1;0;487;4.731;2.2618;307.82;1;131.5829;1;0.8802;0.0059;0.0061;0.0836;0.0179;0.005;0.0014;0;1;-14.1000003814697;0.009999999776483;1
479;HYDAT;MATAWIN (RIVIERE) EN AMONT DE LA ROUTE NO. 131;02NF004;46.66583;-73.97611;1080;1093.271;1;0;494;4.4449;2.0497;235.874;1;136.0614;1;0.8858;0.0055;0.0082;0.0883;0.0071;0.0051;0;0;1;-14.1000003814697;0.009999999776483;1
480;HYDAT;BELLE RIVIERE (RIVIERE) A SAINTE-SCHOLASTIQUE;02OA025;45.65194;-74.09222;28;NaN;0;1;70.5;0.7206;NaN;NaN;0;182.9705;1;0;0;0;0;0.8571;0;0.1429;0;1;NaN;NaN;0
481;HYDAT;MASCOUCHE (RIVIERE) PRES DE SAINT-JANVIER;02OA030;45.69167;-73.93806;18.9;NaN;0;1;67.5;0.3973;NaN;NaN;0;327.9028;1;0;0;0;0;1;0;0;0;1;NaN;NaN;0
482;HYDAT;NORTON (RUISSEAU) EN AVAL DU BARRAGE DE SAINTE-CLOTHILDE;02OA055;45.14944;-73.70639;221;168.8903;1;0;53.9;0.6504;1.7247;86.323;1;196.6582;1;0.3695;0.0162;0.0022;0.0011;0.0378;0.0228;0.5504;0;1;-11.8000001907349;0.059999998658895;1
483;HYDAT;NORTON (RUISSEAU) PRES DU BARRAGE DE SAINTE-CLOTHILDE;02OA056;45.1575;-73.71917;227;172.9457;1;0;53.9;0.6504;1.7247;86.323;1;196.6582;1;0.3695;0.0162;0.0022;0.0011;0.0378;0.0228;0.5504;0;1;-11.8000001907349;0.059999998658895;1
484;HYDAT;ANGLAIS (RIVIERE DES) A 1,1 KM EN AVAL DU PONT-ROUTE A TRES-SAINT-SACREMENT;02OA057;45.175;-73.845;643;597.7089;1;0;115.9;1.1169;1.6898;148.003;1;20.7268;1;0.4643;0.0146;0.0636;0.0039;0.0349;0.0209;0.3979;0;1;-12.0115891414446;0.123476704816237;1
485;HYDAT;ANGLAIS (RIVIERE DES) A HOWICK;02OA059;45.18333;-73.84528;712;598.8705;1;0;115.9;1.1169;1.6898;148.003;1;20.7268;1;0.4643;0.0146;0.0636;0.0039;0.0349;0.0209;0.3979;0;1;-12.0115891414446;0.123476704816237;1
486;HYDAT;TROUT (RIVIERE) A KELVINGROVE;02OA062;45.05056;-74.23278;409;388.027;1;0;240.4;1.8792;1.951;138.538;1;300.6106;1;0.4904;0.0194;0.1118;0.0023;0.0325;0.0136;0.3301;0;1;-12.5353481586163;0.114890112579142;1
487;HYDAT;BELLE RIVIERE (LA) PRES DE LA RIVIERE DU CHENE;02OA078;45.61611;-74.10361;45.1;NaN;0;1;51.6;1.1169;NaN;NaN;0;175.2878;1;0.1875;0;0;0;0.3125;0;0.5;0;1;NaN;NaN;0
488;HYDAT;NORTON (RUISSEAU) AU BARRAGE A SAINT-CLOTHILDE;02OA085;45.14889;-73.67639;215;164.2199;1;0;53.9;0.6504;1.7247;86.323;1;196.6582;1;0.3695;0.0162;0.0022;0.0011;0.0378;0.0228;0.5504;0;1;-11.8000001907349;0.059999998658895;1
489;HYDAT;QUINCHIEN (RIVIERE) A DORION;02OA090;45.38833;-74.05083;33.9;NaN;0;1;31.4;0.5348;NaN;NaN;0;32.7224;1;0;0;0;0.7143;0.2857;0;0;0;1;NaN;NaN;0
490;HYDAT;SAINT-ESPRIT (RIVIERE) PRES DE L'EPIPHANIE;02OB033;45.86833;-73.4825;208;241.4283;1;0;108.5;1.6822;1.7743;100.183;1;112.1562;1;0.463;0.0056;0.0003;0.0057;0.0883;0.0008;0.4364;0;1;-12.7222537376511;0.054112674846825;1
491;HYDAT;ACHIGAN (RIVIERE DE L') A L'EPIPHANIE;02OB037;45.84639;-73.49306;647;626.3886;1;0;158.7;2.4277;1.8958;170.585;1;115.3467;1;0.5829;0.0095;0.0016;0.0291;0.1055;0.0029;0.2684;0;1;-13.175440833432;0.030099118269964;1
492;HYDAT;LOUP (RIVIERE DU) A LOUISEVILLE;02OC019;46.265;-72.93694;1520;1505.565;1;0;344.7;5.4939;1.8102;246.267;1;111.6848;1;0.8335;0.0031;0.0015;0.0783;0.0161;0.0012;0.0663;0;1;-13.9666670365272;0.013252496144535;1
493;HYDAT;NICOLET (RIVIERE) A 5,8 KM EN AVAL DE LA RIVIERE BULSTRODE;02OD003;46.05639;-72.30639;1540;1543.894;1;0;224.3;2.7109;1.9756;287.137;1;251.443;1;0.4891;0.0065;0.0043;0.011;0.0568;0.0018;0.4305;0;1;-14.8875738758206;0.172100591215062;1
494;HYDAT;BULSTRODE (RIVIERE) EN AMONT DE LA ROUTE NO. 116;02OD011;46.13861;-71.80944;249;244.3938;1;0;339;4.4687;1.815;111.443;1;248.7102;1;0.6049;0.0022;0.0005;0.0053;0.0366;0.0009;0.3495;0;1;-14.2966823984661;0.181398106429955;1
495;HYDAT;NOIRE (RIVIERE) PRES DE LA RIVIERE BULSTRODE-1;02OD013;46.11278;-72.05778;29.5;NaN;0;1;104;0.4533;NaN;NaN;0;213.5818;1;1;0;0;0;0;0;0;0;1;NaN;NaN;0
496;HYDAT;SAULTS (RIVIERE DES) PRES DE LA RIVIERE NICOLET SUD-OUEST;02OD018;46.02417;-72.47917;140;140.1824;1;0;87.9;0.5271;1.6009;67.663;1;303.9561;1;0.4032;0.0097;0.0072;0.001;0.0525;0.0025;0.5238;0;1;-15.9527362424936;0.147910445205756;1
497;HYDAT;EATON (RIVIERE) PRES DE LA RIVIERE SAINT-FRANCOIS;02OE013;45.4675;-71.655;642;641.6842;1;0;389.8;2.9471;1.4185;128.115;1;272.5109;1;0.7026;0.0048;0.0009;0.0032;0.0296;0.0018;0.2571;0;1;-15.1890484875282;0.188207962239095;1
498;HYDAT;HALL (RIVIERE) PRES D'EAST HEREFORD;02OE018;45.04472;-71.49833;220;213.5896;1;0;500.1;5.8716;1.5824;84.659;1;121.1924;1;0.7694;0.0068;0.0098;0.0001;0.0255;0.0211;0.1672;0;1;-14.9477706411082;0.148726112760936;1
499;HYDAT;EATON (RIVIERE) PRES DE LA RIVIERE SAINT-FRANCOIS-3;02OE027;45.46722;-71.65528;642;641.2814;1;0;389.8;2.9471;1.4185;128.115;1;272.5109;1;0.7026;0.0048;0.0009;0.0032;0.0296;0.0018;0.2571;0;1;-15.1890484875282;0.188207962239095;1
500;HYDAT;EATON (RIVIERE) EN AMONT DE LA RIVIERE EATON NORD;02OE035;45.38722;-71.5875;243;246.3514;1;0;398.8;3.2849;1.4109;79.024;1;313.9407;1;0.6101;0.0038;0.0002;0.0023;0.0338;0.0019;0.348;0;1;-15.1779367834927;0.186389682472905;1
501;HYDAT;EATON NORD (RIVIERE) PRES DE LA RIVIERE EATON;02OE036;45.37528;-71.53;264;263.6829;1;0;412;2.9169;1.3262;84.914;1;233.0907;1;0.807;0.0041;0.0013;0.002;0.0189;0.0014;0.1653;0;1;-15.1951217630221;0.189201771461316;1
502;HYDAT;BIRCHTON (RUISSEAU) PRES DE LA RIVIERE EATON;02OE050;45.40444;-71.6025;22.9;NaN;0;1;242.7;2.4047;NaN;NaN;0;5.6962;1;0;0;0;0;0;0;1;0;1;NaN;NaN;0
